id,type,price,rent,roomNum,grossArea,netFloorArea,floor,address,postDate,latitude,longitude,title,region,propertyName,contact,imageURL,pageURL,agentName
1,sell,5000000,0,2,440,309,Low level,NO.3 FUNG YAU STREET SOUTH,1/11/2019,22.442017,114.033656,"Estate,Apartment 2 bedroom",Yuen Long,  Ho Shun King Building,譚凱婷 Tina Tam,https://i1.28hse.com/2019/01/750240_2019013147_tmb3.jpg,https://www.28hse.com/en/buy-property-750240.html,Qfang.com
8,sell,4200000,0,3,700,650,Mid level,Yuen Long,1/10/2019,22.4314,114.017416,"Estate,Village House,Apartment 3 bedroom",Yuen Long,  Village,星港地產 STARLITE,https://i1.28hse.com/2017/04/341856_2017045530_tmb3.jpg,https://www.28hse.com/en/buy-property-309608.html,Starlite Property
38,sell,4700000,0,1,319,229,High level,No.39-49 Wan Chai Road,1/7/2019,22.275766,114.174414,"Estate,Stand-alone Building,Apartment 1 bedroom",Wan Chai,  Fu Yuen,卓滙物業代理 ChapWin Property,https://i1.28hse.com/2019/01/747464_2019011277_tmb3.jpg,https://www.28hse.com/en/buy-property-747464.html,chapwin property
43,sell,5000000,0,1,433,313,High level,NO.9 ON PONG ROAD,1/7/2019,22.450209,114.169008,"Block 05, Tai Po Centre",Tai Po,   Centre,"賴嘉敏小姐 Carman, Lai Ka Man",https://i1.28hse.com/2019/01/747402_2019013365_tmb3.jpg,https://www.28hse.com/en/buy-property-747402.html,Midland Property
54,sell,5200000,0,1,474,309,Low level,NO.231 HENNESSY ROAD,1/2/2019,22.278105,114.175734,"Stand-alone Building,Apartment 1 bedroom",Wan Chai,  Eastman Court,黃先生 KEN WONG,https://i1.28hse.com/2019/01/765582_2019014187_tmb3.jpg,https://www.28hse.com/en/buy-property-744555.html,Richland Realty
70,sell,5900000,0,3,657,560,High level,NO.185 Fu Shan To,1/8/2019,22.34139799,114.2080522,Grand View Garden,Diamond Hill,  Grand View Garden,黎先生,https://i1.28hse.com/2019/01/748210_2019014527_tmb3.jpg,https://www.28hse.com/en/buy-property-748210.html,Fullmark
101,sell,9400000,0,3,726,501,Mid level,NO.2 PO MAN STREET,1/2/2019,22.27845,114.228674,"Stand-alone Building,Apartment 3 bedroom",Shaukeiwan,  Hoi Fung Centre,宏智物業 ＥＭＢＬＡＺＯＮ　ＰＲＯＰＥＲＴＹ,https://i1.28hse.com/2019/01/765548_2019013827_tmb3.jpg,https://www.28hse.com/en/buy-property-744517.html,Emblazon Property
111,sell,3800000,0,2,507,407,Mid level,NO.8 PO LEI STREET KWAI CHUNG,1/1/2019,22.361751,114.138906,"Estate,Home Ownership,Apartment 2 bedroom",Kwai Chung,  Yi Fung Court,劉先生 Samuel Lau,https://i1.28hse.com/2019/01/743957_2019015999_tmb3.jpg,https://www.28hse.com/en/buy-property-743957.html,Well Link Property
124,sell,11000000,0,3,943,678,High level,NO.8 KING LING ROAD,12/31/2018,22.30462666,114.2519385,"Tower 5, Phase 1 (Metro Town), Metro Town",Tseung Kwan O,  Metro Town,"何美禎小姐 Ivy, Ho Mei Ching",https://i1.28hse.com/2018/12/743248_2018124331_tmb3.jpg,https://www.28hse.com/en/buy-property-743248.html,Hong Kong Property
126,sell,8500000,0,2,712,530,Mid level,88 O KING ROAD,12/31/2018,22.30075543,114.2546529,"Block 11, Ocean Shores",Tseung Kwan O,  Ocean Shores,"邱紫琼小姐 Venus, Yau Tsz King",https://i1.28hse.com/2018/12/743242_2018123328_tmb3.jpg,https://www.28hse.com/en/buy-property-743242.html,Hong Kong Property
189,sell,11500000,0,3,917,687,High level,NO. 1 PO TAI STREET,12/22/2018,22.41437,114.223064,"Estate,Apartment 3 bedroom",Ma On Shan,  Ocean View,陳小姐,https://i1.28hse.com/2018/12/739226_2018125311_tmb3.jpg,https://www.28hse.com/en/buy-property-739226.html,Century 21 Goodwin
240,sell,9400000,0,4,750,565,Mid level,NO.42 WOOD ROAD,12/18/2018,22.276254,114.176365,"By Owner, Stand-alone Building,Apartment 4 bedroom",Wan Chai,  Wah To Building,盧太 Mrs. Lo,https://i1.28hse.com/2018/12/736474_2018124854_tmb3.jpg,https://www.28hse.com/en/buy-property-736474.html,By Owner
254,sell,4800000,0,2,499,306,Mid level,NOS.5-7 CHUI TIN ST.,12/17/2018,22.369504,114.184082,"Stage 2 - Blk F - (Golden Fullness Court), Golden",Tai Wai,  Golden Lion Garden,"李錦添先生 Tim, Lee Kam Tim",https://i1.28hse.com/2019/01/735599_2019012600_tmb3.jpg,https://www.28hse.com/en/buy-property-735599.html,Midland Property
258,sell,13600000,0,3,850,691,Low level,7 Li Kwan Avenue,12/17/2018,22.276334,114.19349,Regent Court,Tai Hang,  Regent Court,"何灝霖小姐 Kimberly, Ho Hoi Lam",https://i1.28hse.com/2018/12/735520_2018124821_tmb3.jpg,https://www.28hse.com/en/buy-property-735520.html,Hong Kong Property
259,sell,6800000,0,4,845,650,Mid level,NO.1 TAK TIN STREET,12/17/2018,22.310395,114.234508,"By Owner, Home Ownership,Apartment 4 bedroom",Lam Tin,  Hong Yat Court,Andrea Wu Andrea,https://i1.28hse.com/2017/12/502614_2017125137_tmb3.jpg,https://www.28hse.com/en/buy-property-502614.html,By Owner
270,sell,5300000,0,2,695,559,Mid level,NO.63 WING TAI ROAD,12/15/2018,22.268307,114.240625,"Home Ownership,Apartment 2 bedroom",Chai Wan,  Hang Tsui Court,宏智物業 ＥＭＢＬＡＺＯＮ　ＰＲＯＰＥＲＴＹ,https://i1.28hse.com/2018/12/756036_2018121550_tmb3.jpg,https://www.28hse.com/en/buy-property-734658.html,Emblazon Property
301,sell,6400000,0,2,718,610,High level,NO.1 LAI CHI LING ROAD,12/13/2018,22.350659,114.131667,"By Owner, Estate,Home Ownership,Apartment 2 bedroom",Mei Foo,  Tsui Yiu Court,Peggy,https://i1.28hse.com/2018/12/732957_2018124937_tmb3.jpg,https://www.28hse.com/en/buy-property-732957.html,By Owner
343,sell,11000000,0,5 +,980,848,Low level,NO.4 WESTLANDS ROAD,1/9/2019,22.2854725,114.2133691,"Estate,Apartment 5 bedroom",Quarry Bay,  Westlands Gardens,陳先生 Ryan Chan,https://www.28hse.com/en/utf8/dreamimages/nophoto150.jpg,https://www.28hse.com/en/buy-property-749391.html,Cheong Shing Property
371,sell,7500000,0,3,742,591,High level,8 WAN HANG ROAD,1/10/2019,22.320268,114.258496,The Pinnacle,Tseung Kwan O,  The Pinnacle,世紀21物業(將軍澳),https://i1.28hse.com/2019/01/749872_2019014006_tmb3.jpg,https://www.28hse.com/en/buy-property-749872.html,Century 21 (Tseung Kwan O)
391,sell,9300000,0,3,857,687,Low level,NO.2 LAGUNA STREET,1/7/2019,22.30676075,114.2268598,"Block 13, Laguna City",Lam Tin,  Laguna City,"何錦慶先生 Jackson, Ho Kam Hing",https://i1.28hse.com/2019/01/747427_2019015453_tmb3.jpg,https://www.28hse.com/en/buy-property-747427.html,Midland Property
392,sell,6400000,0,2,515,369,High level,NO.8 FUK LEE STREET,1/7/2019,22.32437,114.159788,"Block 09, Phase 2, Metro Harbour View",Tai Kok Tsui,  Metro Harbour View,"周啟聰先生 Jay, Chow Kai Chung",https://i1.28hse.com/2019/01/747422_2019011667_tmb3.jpg,https://www.28hse.com/en/buy-property-747422.html,Midland Property
393,sell,4700000,0,2,431,315,High level,NO.9 ON PONG ROAD,1/7/2019,22.450209,114.169008,"Block 20, Tai Po Centre",Tai Po,   Centre,"嚴小玲小姐 Elaine, Yim Siu Ling",https://i1.28hse.com/2019/01/747409_2019014520_tmb3.jpg,https://www.28hse.com/en/buy-property-747409.html,Midland Property
394,sell,5700000,0,1,517,371,Mid level,NO.9 ON PONG ROAD,1/7/2019,22.450209,114.169008,"Block 08, Tai Po Centre",Tai Po,   Centre,"吳華彩小姐 Rainbow, Ng Wa Choi",https://i1.28hse.com/2019/01/747406_2019014713_tmb3.jpg,https://www.28hse.com/en/buy-property-747406.html,Midland Property
399,sell,5600000,0,3,712,554,High level,NO.9 KAM YING ROAD,1/6/2019,22.42267237,114.2364407,"Home Ownership,Apartment 3 bedroom",Ma On Shan,  Kam Ying Court,郭小姐 Ar Man,https://i1.28hse.com/2019/01/747277_2019010703_tmb3.jpg,https://www.28hse.com/en/buy-property-747277.html,Goodwin Property
417,sell,4900000,0,1,514,401,Mid level,NO.78 SIU LEK YUEN ROAD,1/5/2019,22.38065471,114.2167586,"Estate,Home Ownership,Apartment 1 bedroom",ShaTin,  Hong Lam Court,莊先生 Johnson Chong,https://i1.28hse.com/2019/01/767698_2019014297_tmb3.jpg,https://www.28hse.com/en/buy-property-746753.html,Century 21 Goodwin Property
429,sell,4900000,0,2,607,488,High level,NO.121 CHOI HUNG ROAD,12/11/2018,22.337517,114.195196,Kai Tak Garden,Wong Tai Sin,  Kai Tak Garden,黎先生,https://i1.28hse.com/2019/01/732057_2019012016_tmb3.jpg,https://www.28hse.com/en/buy-property-732057.html,Fullmark
431,sell,5000000,0,2,519,434,Mid level,NO. 32 FUNG SHING STREET,12/11/2018,22.34212,114.210612,King Shan Court,Ngau Chi Wan,  King Shan Court,黎先生,https://i1.28hse.com/2019/01/732052_2019015425_tmb3.jpg,https://www.28hse.com/en/buy-property-732052.html,Fullmark
434,sell,4900000,0,2,543,477,Mid level,NO.195 TSUEN KING CIRCUIT,1/5/2019,22.378318,114.103615,"Estate,Studio,Apartment 2 bedroom",Tsuen Wan,  Allway Gardens,馮先生 Dickson Fung,https://i1.28hse.com/2018/02/718922_2018021575_tmb3.jpg,https://www.28hse.com/en/buy-property-718922.html,ISLAND PROPERTY
439,sell,3100000,0,3,692,490,High level,顯徑邨,1/4/2019,22.3650556,114.1738889,"Estate,Public Estate,Apartment 3 bedroom",Tai Wai,  Hin Keng Estate,何先生 Tim Ho,https://i1.28hse.com/2018/11/742855_2018111158_tmb3.jpg,https://www.28hse.com/en/buy-property-720733.html,Shiu Fung Property
483,sell,5800000,0,open style,347,262,High level,NO.73 SMITHFIELD,1/2/2019,22.280689,114.128653,"Estate,Apartment 7 bedroom",Kennedy Town,  Smithfield Terrace,吳先生 Johnny Ng,https://i1.28hse.com/2018/09/566662_2018093504_tmb3.jpg,https://www.28hse.com/en/buy-property-539503.html,Kin Kee Property
507,sell,7500000,0,2,423,346,Low level,NOS.22/36 PATERSON STREET,12/31/2018,22.280995,114.185845,Pearl City Mansion,Causeway Bay,  Pearl City Mansion,"何灝霖小姐 Kimberly, Ho Hoi Lam",https://i1.28hse.com/2018/12/743222_2018122989_tmb3.jpg,https://www.28hse.com/en/buy-property-743222.html,Hong Kong Property
570,sell,3600000,0,2,515,401,High level,NO.7 HIU TSUI STREET,12/25/2018,22.263335,114.247113,HIU TSUI COURT 2 RM 3.68M,Chai Wan,  Hiu Tsui Court,周生 EDMOND,https://i1.28hse.com/2018/11/743719_2018111680_tmb3.jpg,https://www.28hse.com/en/buy-property-721706.html,Merton Property
580,sell,11300000,0,2,734,509,Low level,NO.238 KINGS ROAD,12/24/2018,22.288056,114.194035,"Block B, Fortress Metro Tower",North Point,  Fortress Metro Tower,"李君傑先生 Ricky, Lee Kwan Kit",https://i1.28hse.com/2018/12/739772_2018121286_tmb3.jpg,https://www.28hse.com/en/buy-property-739772.html,Hong Kong Property
627,sell,4800000,0,2,532,419,Mid level,NO.2-16 SAI SHAN ROAD,12/20/2018,22.344501,114.107536,"With sea view,Negoitable",Tsing Yi,  Mayfair Gardens,鄧艷雲 Tang Yim Wan (Gaby),https://i1.28hse.com/2019/01/759006_2019013531_tmb3.jpg,https://www.28hse.com/en/buy-property-737758.html,Kai Shing (REA) Limited
689,sell,4500000,0,2,395,284,Low level,NO.4 TAK LEE STREET,12/17/2018,22.38808758,114.2031384,"Block 44, City One Shatin",ShaTin,  City One Shatin,"方潔蓮小姐 Angel, Fong Kit Lin",https://i1.28hse.com/2019/01/735618_2019013222_tmb3.jpg,https://www.28hse.com/en/buy-property-735618.html,Midland Property
968,sell,6900000,0,2,600,537,Mid level,NO.8 WAH KING HILL ROAD KWAI CHUNG,1/10/2019,22.34964,114.136007,"South, Victoria Harbour",Mei Foo,  Wah Yuen Chuen,葉先生 Winson Ip,https://i1.28hse.com/2018/10/693704_2018105379_tmb3.jpg,https://www.28hse.com/en/buy-property-672192.html,Easy Land Agency
978,sell,4500000,0,3,712,592,High level,NO.2 WU SAU STREET,1/10/2019,22.374948,113.967971,"By Owner, Estate,Home Ownership,Apartment 3 bedroom",Tuen Mun,  Yuet Wu Villa,WONG,https://i1.28hse.com/2019/01/749952_2019013972_tmb3.jpg,https://www.28hse.com/en/buy-property-749952.html,By Owner
1067,sell,6000000,0,1,750,750,Ground Floor,"15-21 Wong Chuk Yeung St., Sha Tin",1/10/2019,22.397986,114.189337,"By Owner, Short Rental,Office/industrial 1 bedroom",Fotan,  Wah Luen Industrial Centre,FILL,https://i1.28hse.com/2019/01/749734_2019014038_tmb3.jpg,https://www.28hse.com/en/buy-property-749734.html,By Owner
1134,sell,5600000,0,3,693,591,Mid level,NO.8 KING TUNG STREET,12/11/2018,22.340561,114.211153,Kingsford Terrace,Ngau Chi Wan,  Kingsford Terrace,黎先生,https://i1.28hse.com/2019/01/732065_2019013290_tmb3.jpg,https://www.28hse.com/en/buy-property-732065.html,Fullmark
1195,sell,12500000,0,1,699,531,High level,NO. 1 WO FUNG STREET,12/16/2018,22.28690621,114.1466564,"Don't miss it, good timing for negotiation",Sheung Wan,  One Pacific Heights,葉小姐 Helen,https://i1.28hse.com/2018/12/735039_2018123817_tmb3.jpg,https://www.28hse.com/en/buy-property-735039.html,By Real Estate Agency
1370,sell,8000000,0,3,733,550,High level,8 MAU TAI ROAD,1/10/2019,22.322843,114.255673,Verbena Heights,Tseung Kwan O,  Verbena Heights,世紀21物業(將軍澳),https://i1.28hse.com/2019/01/749932_2019013655_tmb3.jpg,https://www.28hse.com/en/buy-property-749932.html,Century 21 (Tseung Kwan O)
1473,sell,1300000,0,open style,85,45,Low level,109 Argyle St.,1/9/2019,22.31999987,114.1709526,Shops 7 bedroom,Mong Kok,  Richmond Commercial Building,黃生 Tracen Wong,https://i1.28hse.com/2019/01/769960_2019014968_tmb3.jpg,https://www.28hse.com/en/buy-property-749083.html,Kwong Shun Property
1600,sell,3200000,0,2,601,438,Mid level,NO.10 YAN WAH STREET,12/11/2018,22.34825743,114.2019743,Tsz On Court,Wong Tai Sin,  Tsz On Court,黎先生,https://i1.28hse.com/2019/01/732024_2019013861_tmb3.jpg,https://www.28hse.com/en/buy-property-732024.html,Fullmark
1656,sell,5700000,0,2,568,484,Low level,11 TONG CHUN STREET,1/8/2019,22.306734,114.262383,"By Owner, Home Ownership,Apartment 2 bedroom",Tseung Kwan O,  Bauhinia Garden,吳太 Mrs Ng,https://i1.28hse.com/2019/01/748782_2019015397_tmb3.jpg,https://www.28hse.com/en/buy-property-748782.html,By Owner
1774,sell,14800000,0,2,703,600,Mid level,58A & 58B CONDUIT ROAD 97 ROBINSON ROAD,1/8/2019,22.281985,114.147186,Carpark+Balcony+2brs+big living room VP,Western mid-levels,  Scenic Heights,Sylvia Lo,https://i1.28hse.com/2018/12/742443_2018125567_tmb3.jpg,https://www.28hse.com/en/buy-property-742443.html,By Real Estate Agency
1798,sell,10500000,0,3,863,633,Mid level,1 TONG TAK STREET,1/10/2019,22.3094444,114.2625,Tseung Kwan O Plaza,Tseung Kwan O,   Plaza,世紀21物業(將軍澳),https://i1.28hse.com/2019/01/749922_2019014512_tmb3.jpg,https://www.28hse.com/en/buy-property-749922.html,Century 21 (Tseung Kwan O)
1886,sell,6200000,0,2,638,451,Mid level,NO.1 TSING YI ROAD,11/12/2018,22.343678,114.109823,Rambler Crest,Tsing Yi,  Rambler Crest,詹皓泰 Andy Jim,https://i1.28hse.com/2019/01/736504_2019013102_tmb3.jpg,https://www.28hse.com/en/buy-property-714110.html,美聯物業
1888,sell,8800000,0,2,687,499,Mid level,NO.8 NGA YING CHAU STREET TSING YI,11/12/2018,22.362227,114.105808,Villa Esplanada,Tsing Yi,  Villa Esplanada,黃雪梅 Tina,https://i1.28hse.com/2018/11/713984_2018110924_tmb3.jpg,https://www.28hse.com/en/buy-property-713984.html,美聯物業
1891,sell,4400000,0,2,515,401,High level,NO.22 TSING CHIN STREET,11/12/2018,22.348751,114.100631,Ching Wah Court,Tsing Yi,  Ching Wah Court,李崇輝 Ben Lee,https://i1.28hse.com/2018/11/713835_2018115308_tmb3.jpg,https://www.28hse.com/en/buy-property-713835.html,美聯物業
1995,sell,7300000,0,3,813,597,High level,NO.33 FUNG SHING STREET,1/10/2019,22.342075,114.211796,Hilltop Gardens,Ngau Chi Wan,  Hilltop Gardens,黎先生,https://i1.28hse.com/2019/01/749613_2019012902_tmb3.jpg,https://www.28hse.com/en/buy-property-749613.html,Fullmark
2105,sell,2300000,0,2,535,407,Low level,小瀝源Siu Lek Yuen Rd 68號,11/25/2018,22.381231,114.214146,"Public Estate,Apartment 2 bedroom",ShaTin,  Kwong Yuen Estate,陳志明 ERIC CHAN,https://i1.28hse.com/2019/01/517980_2019011512_tmb3.jpg,https://www.28hse.com/en/buy-property-489889.html,Castello Property Agency
2127,sell,4600000,0,2,365,274,High level,NO.60 SAU FU STREET,1/7/2019,22.44546,114.026318,"By Owner, Estate,Stand-alone Building,Apartment 2 bedroom",Yuen Long,  Ho Shun Fuk Building,佘生,https://i1.28hse.com/2018/05/688327_2018051530_tmb3.jpg,https://www.28hse.com/en/buy-property-688327.html,By Owner
2154,sell,9600000,0,3,970,671,Low level,NO.22 YAU LAI ROAD TING KAU TSUEN WAN,1/7/2019,22.36867034,114.0907929,"With sea view,Spacious,Car park with cover,well facilities,nice environment",Tsuen Wan,  Hanley Villa,歐先生 IVAN,https://i1.28hse.com/2019/01/768806_2019010435_tmb3.jpg,https://www.28hse.com/en/buy-property-747879.html,Century 21 Wystan Property
2177,sell,3300000,0,2,515,401,High level,NO.3 SIU HING LANE,11/23/2018,22.384449,113.975842,"Home ownership scheme for lease,Best price for lea",Tuen Mun,  Siu Lun Court,朱麒銘 EDDIE CHU,https://i1.28hse.com/2019/01/651301_2019010541_tmb3.jpg,https://www.28hse.com/en/buy-property-651301.html,Midland Realty
2185,sell,6700000,0,3,849,634,High level,15 TONG MING STREET,1/10/2019,22.309061,114.256665,Tong Ming Court,Tseung Kwan O,  Tong Ming Court,世紀21物業(將軍澳),https://i1.28hse.com/2019/01/749917_2019012079_tmb3.jpg,https://www.28hse.com/en/buy-property-749917.html,Century 21 (Tseung Kwan O)
2277,sell,6800000,0,2,600,446,Low level,NO.18 TAI PO TAU ROAD,1/9/2019,22.453866,114.160322,Serenity Park,Tai Po,  Serenity Park,聶小姐,https://i1.28hse.com/2019/01/749077_2019013589_tmb3.jpg,https://www.28hse.com/en/buy-property-749077.html,Richland Property
2394,sell,5800000,0,2,665,507,Mid level,85 PAK LAM ROAD MA WAN,12/27/2018,22.352128,114.061469,PHASE 5 TWO BEDROOMS WITH BALCONY,Ma Wan,  Park Island,沈小姐 Ms Sum,https://i1.28hse.com/2018/12/708967_2018120415_tmb3.jpg,https://www.28hse.com/en/buy-property-685511.html,Midland Realty
2400,sell,10200000,0,2,571,487,Low level,范信達道7號,1/7/2019,22.34207527,114.1822064,"Block F, Phoenix Court",Kowloon Tong,  Phoenix Court,"朱淑芝小姐 Chi, Chu Shuk Chi",https://i1.28hse.com/2019/01/747459_2019015415_tmb3.jpg,https://www.28hse.com/en/buy-property-747459.html,Midland Property
2403,sell,9900000,0,1,607,471,Mid level,No.1 Yau Cheung Road,1/7/2019,22.31032348,114.1658604,"Block 6, The Coronation",Yau Ma Tei,  The Coronation,"張燕玲小姐 Vermont, Cheung Yin Ling",https://i1.28hse.com/2019/01/747453_2019011010_tmb3.jpg,https://www.28hse.com/en/buy-property-747453.html,Midland Property
2411,sell,9000000,0,1,543,398,Low level,NO.23 WARREN STREET,1/7/2019,22.2780812,114.1917993,Warrenwoods,Tai Hang,  WarrenWoods,"李敬源先生 Bryan, Lee King Yuen",https://i1.28hse.com/2019/01/747441_2019011352_tmb3.jpg,https://www.28hse.com/en/buy-property-747441.html,Midland Property
2415,sell,10800000,0,3,776,629,Mid level,YI NAM ROAD,1/7/2019,22.243749,114.146545,"Block 01, South Horizons",South Horizons,  ,"宋曲莉小姐 Janice, Song Quli",https://i1.28hse.com/2019/01/747436_2019014246_tmb3.jpg,https://www.28hse.com/en/buy-property-747436.html,Midland Property
2417,sell,12800000,0,2,747,583,High level,窩打老道78號,1/7/2019,22.31780293,114.1753702,Park Horizon,Ho Man Tin,  Park Horizon,"黃超珍小姐 Winnie, Wong Chiu Chun",https://i1.28hse.com/2019/01/747428_2019013287_tmb3.jpg,https://www.28hse.com/en/buy-property-747428.html,Midland Property
2419,sell,4500000,0,2,502,404,Low level,NO.1 TUEN LEE STREET,10/17/2018,22.392173,113.978132,"Estate,Village House,Apartment 2 bedroom",Tuen Mun,  Waldorf Garden,林琛馥 SAMF LAM,https://i1.28hse.com/2018/12/718068_2018120455_tmb3.jpg,https://www.28hse.com/en/buy-property-695261.html,Midland Realty
2424,sell,9200000,0,2,641,459,High level,NO.1 TUNG SHAN TERRACE,1/7/2019,22.267497,114.181808,The Notting Hill,Happy Valley,  The Notting Hill,"梁夢嫺小姐 Monita, Leung Mong Han",https://i1.28hse.com/2019/01/747423_2019011670_tmb3.jpg,https://www.28hse.com/en/buy-property-747423.html,Midland Property
2425,sell,13500000,0,2,587,587,Mid level,28 Sheung Shing Street,1/7/2019,22.3190823,114.1810051,"Block 5, Mantin Heights",Ho Man Tin,  Mantin Heights,"許健強先生 Vincent, Shui Kin Keung",https://i1.28hse.com/2019/01/747418_2019012999_tmb3.jpg,https://www.28hse.com/en/buy-property-747418.html,Midland Property
2428,sell,13800000,0,2,505,505,High level,28 Sheung Shing Street,1/7/2019,22.3190823,114.1810051,"Block 1, Mantin Heights",Ho Man Tin,  Mantin Heights,"劉子倫先生 Jacky, Lau Tsz Lun",https://i1.28hse.com/2019/01/747416_2019013661_tmb3.jpg,https://www.28hse.com/en/buy-property-747416.html,Midland Property
2441,sell,9300000,0,2,646,455,High level,NO.28 SIU SAI WAN ROAD,1/7/2019,22.266584,114.250005,"Block 1, Island Resort",Chai Wan,  Island Resort,"陳小菊小姐 Lisa, Chan Siu Kuk",https://i1.28hse.com/2019/01/747395_2019012303_tmb3.jpg,https://www.28hse.com/en/buy-property-747395.html,Midland Property
2444,sell,9000000,0,2,722,492,High level,NO.28 SIU SAI WAN ROAD,1/7/2019,22.266584,114.250005,"Block 6, Island Resort",Chai Wan,  Island Resort,"郭新華小姐 Helen, Guo Xinhua",https://i1.28hse.com/2019/01/747393_2019014354_tmb3.jpg,https://www.28hse.com/en/buy-property-747393.html,Midland Property
2446,sell,9400000,0,3,827,567,Low level,NO.28 SIU SAI WAN ROAD,1/7/2019,22.266584,114.250005,"Block 5, Island Resort",Chai Wan,  Island Resort,"陳小菊小姐 Lisa, Chan Siu Kuk",https://i1.28hse.com/2019/01/747392_2019015499_tmb3.jpg,https://www.28hse.com/en/buy-property-747392.html,Midland Property
2447,sell,18000000,0,3,989,783,Mid level,NO. 48 LYTTELTON ROAD,1/7/2019,22.283745,114.141665,Scholastic Garden,Western mid-levels,  Scholastic Garden,"秦麒晉先生 Calvin, Chun Kee Chun",https://i1.28hse.com/2019/01/747388_2019013319_tmb3.jpg,https://www.28hse.com/en/buy-property-747388.html,Hong Kong Property
2448,sell,9600000,0,2,628,420,High level,NO.18 JUPITER STREET,1/7/2019,22.286494,114.192094,"Block 2, Jupiter Terrace",North Point,  Jupiter Terrace,"鄭國志先生 Sammy, Cheng Kwok Chi",https://i1.28hse.com/2019/01/747387_2019015732_tmb3.jpg,https://www.28hse.com/en/buy-property-747387.html,Midland Property
2459,sell,8900000,0,2,612,456,Mid level,NO.11 HOI FAN ROAD,1/7/2019,22.320628,114.155249,"Block 3, Hampton Place",Olympic,  Hampton Place,"劉思怡小姐 Ashley, Lau Sze Yi",https://i1.28hse.com/2019/01/747375_2019015775_tmb3.jpg,https://www.28hse.com/en/buy-property-747375.html,Hong Kong Property
2610,sell,5000000,0,2,435,347,Mid level,NO.15 CASTLE PEAK ROAD TSUEN WAN,1/6/2019,22.369964,114.121893,Tsuen Wan Garden,Tsuen Wan,   Garden,永誠置業 Forever Agency,https://i1.28hse.com/2019/01/767996_2019012006_tmb3.jpg,https://www.28hse.com/en/buy-property-747058.html,Forever Agency
2651,sell,1600000,0,open style,161,161,Low level,開源道45 號,1/6/2019,22.310031,114.223377,"By Owner, Office/industrial 7 bedroom",Kwun Tong,  Yau Lee Centre,Mr LEE,https://i1.28hse.com/2019/01/746993_2019013837_tmb3.jpg,https://www.28hse.com/en/buy-property-746993.html,By Owner
2693,sell,7200000,0,2,507,446,Low level,560 KINGS ROAD,1/6/2019,22.291667,114.203934,Simple decorated,North Point,  Healthy Gardens,洪先生 Vincent Hung,https://www.28hse.com/en/utf8/dreamimages/nophoto150.jpg,https://www.28hse.com/en/buy-property-746929.html,Elegant Property
2738,sell,8300000,0,3,997,663,Mid level,NO.11 LEI YUE MUN ROAD,1/10/2019,22.308434,114.232614,Lei On Court,Lam Tin,  Lei On Court,黎先生,https://i1.28hse.com/2019/01/749606_2019010760_tmb3.jpg,https://www.28hse.com/en/buy-property-749606.html,Fullmark
2918,sell,9300000,0,3,915,694,High level,NO.8 SHEK KOK ROAD,1/10/2019,22.29757399,114.2750459,The Beaumount,Tseung Kwan O,  The Beaumount,世紀21物業(將軍澳),https://i1.28hse.com/2019/01/749900_2019010515_tmb3.jpg,https://www.28hse.com/en/buy-property-749900.html,Century 21 (Tseung Kwan O)
2988,sell,6100000,0,2,551,409,High level,NO.9 ON PONG ROAD,1/9/2019,22.450209,114.169008,Tai Po Centre,Tai Po,   Centre,聶小姐,https://i1.28hse.com/2019/01/749073_2019015056_tmb3.jpg,https://www.28hse.com/en/buy-property-749073.html,Richland Property
2989,sell,8000000,0,2,599,489,High level,NO.9 NAM WAN ROAD,1/9/2019,22.444087,114.168882,UpTown Plaza,Tai Po,  UpTown Plaza,聶小姐,https://i1.28hse.com/2019/01/749071_2019015584_tmb3.jpg,https://www.28hse.com/en/buy-property-749071.html,Richland Property
3079,sell,3200000,0,2,626,485,Low level,穎竹街,1/10/2019,22.345807,114.192925,Chuk Yuen North Estate,Wong Tai Sin,  Chuk Yuen North Estate,黎先生,https://i1.28hse.com/2019/01/749605_2019010353_tmb3.jpg,https://www.28hse.com/en/buy-property-749605.html,Fullmark
3137,sell,6200000,0,1,700,630,Ground Floor,Yuen Long,1/4/2019,22.4282218,114.0834152,"Village House,Apartment,House 1 bedroom",Yuen Long,  Village,曾小姐 FANNY TSANG,https://i1.28hse.com/2019/01/746145_2019013729_tmb3.jpg,https://www.28hse.com/en/buy-property-746145.html,Hang Shun Real Estate
3171,sell,3200000,0,3,638,485,High level,藍田興田邨,12/23/2018,22.312478,114.237334,"Public Estate,Apartment 3 bedroom",Lam Tin,  Hing Tin Estate,關小姐 Peggy Kwan,https://i1.28hse.com/2018/12/739474_2018125749_tmb3.jpg,https://www.28hse.com/en/buy-property-739474.html,Century 21 Luen Shing Pro
3240,sell,7000000,0,3,781,604,Mid level,88 PO HONG ROAD,1/10/2019,22.322482,114.254121,Serenity Place,Tseung Kwan O,  Serenity Place,世紀21物業(將軍澳),https://i1.28hse.com/2019/01/749891_2019014378_tmb3.jpg,https://www.28hse.com/en/buy-property-749891.html,Century 21 (Tseung Kwan O)
3336,sell,8300000,0,3,997,663,Mid level,NO.11 LEI YUE MUN ROAD,12/22/2018,22.308434,114.232614,"Home ownership scheme,Best Buy in the market,Luxur",Lam Tin,  Lei On Court,程小姐 KIMMYCHENG,https://i1.28hse.com/2018/06/638045_2018062037_tmb3.jpg,https://www.28hse.com/en/buy-property-612408.html,Wings Property
3401,sell,7500000,0,2,627,439,Mid level,NO. 99 PO KONG VILLAGE ROAD,1/10/2019,22.345628,114.199058,The Forest Hills,Wong Tai Sin,  The Forest Hills,黎先生,https://i1.28hse.com/2019/01/749603_2019014592_tmb3.jpg,https://www.28hse.com/en/buy-property-749603.html,Fullmark
3402,sell,11500000,0,3,932,675,Mid level,NO.183 HAMMER HILL ROAD,1/10/2019,22.340703,114.207764,Regent On The Hill,Diamond Hill,  Regent On The Hill,黎先生,https://i1.28hse.com/2019/01/749602_2019012452_tmb3.jpg,https://www.28hse.com/en/buy-property-749602.html,Fullmark
3745,sell,5700000,0,2,600,437,Mid level,NO.189 PIK WAN ROAD,1/3/2019,22.306071,114.238214,"Home ownership scheme,North-west,Partial sea view",Lam Tin,  Hong Nga Court,李生 MR LEE,https://i1.28hse.com/2019/01/766242_2019011479_tmb3.jpg,https://www.28hse.com/en/buy-property-745245.html,Yi Lam Property
3922,sell,8200000,0,2,559,432,Mid level,NO.8 OI KING STREET,12/11/2018,22.3026748,114.1869438,"well facilities,well managnment",Hung Hom,  Harbour Place,林小姐 CATHERINE LAM,https://i1.28hse.com/2018/12/753373_2018121741_tmb3.jpg,https://www.28hse.com/en/buy-property-731854.html,Union Property
3965,sell,7100000,0,2,606,437,High level,NO.307 TO KWA WAN ROAD,1/2/2019,22.317204,114.190855,"Negoitable,Open view,Far view",To Kwa Wan,  In House,高先生 Steven Ko,https://i1.28hse.com/2019/01/765713_2019013394_tmb3.jpg,https://www.28hse.com/en/buy-property-744693.html,Union Property
4229,sell,5500000,0,3,851,650,Mid level,NO.120 TSZ WAN SHAN ROAD,12/11/2018,22.35016015,114.1992062,Tsz Oi Court,Wong Tai Sin,  Tsz Oi Court,黎先生,https://i1.28hse.com/2019/01/732042_2019011350_tmb3.jpg,https://www.28hse.com/en/buy-property-732042.html,Fullmark
4287,sell,6200000,0,1,521,383,Mid level,NO.8 LUNG POON STREET,12/17/2018,22.342041,114.199846,"By Owner, Short Rental,Estate,Home Ownership,Apartment 1 bedroom",Diamond Hill,  Lung Poon Court,張小姐 Cheung Ying Po Pauline,https://i1.28hse.com/2018/12/735508_2018124191_tmb3.jpg,https://www.28hse.com/en/buy-property-735508.html,By Owner
4467,sell,7700000,0,2,639,464,Mid level,NO.863 LAI CHI KOK ROAD,12/31/2018,22.334478,114.1476,With balcony,Lai Chi Kok,  Banyan Garden,鍾麗清 SUNNIE CHUNG,https://i1.28hse.com/2018/12/764521_2018123087_tmb3.jpg,https://www.28hse.com/en/buy-property-743442.html,Hong Kong Property
4626,sell,5600000,0,2,563,432,Mid level,NO.19 TING KOK ROAD,1/9/2019,22.452756,114.164898,Full Scene Garden,Tai Po,  Full Scene Garden,聶小姐,https://www.28hse.com/en/utf8/dreamimages/nophoto150.jpg,https://www.28hse.com/en/buy-property-749051.html,Richland Property
4627,sell,5800000,0,2,564,467,High level,NO.3821 TAI PO ROAD YUEN CHAU TSAI TAI PO,1/9/2019,22.446399,114.175876,Wang Fuk Court,Tai Po,  Wang Fuk Court,聶小姐,https://i1.28hse.com/2019/01/749050_2019014760_tmb3.jpg,https://www.28hse.com/en/buy-property-749050.html,Richland Property
4703,sell,2100000,0,1,456,349,Low level,鑽石山蒲崗村道,1/9/2019,22.344885,114.201206,Fung Tak Estate,Diamond Hill,  Fung Tak Estate,黎先生,https://i1.28hse.com/2019/01/748889_2019015655_tmb3.jpg,https://www.28hse.com/en/buy-property-748889.html,Fullmark
4723,sell,5500000,0,2,527,426,High level,NO.264 LAI KING HILL ROAD,12/31/2018,22.338803,114.134952,"Block D, Ching Lai Court",Mei Foo,  Ching Lai Court,"林桂新先生 Roger, Lam Kwai Sun",https://i1.28hse.com/2018/12/743238_2018123598_tmb3.jpg,https://www.28hse.com/en/buy-property-743238.html,Hong Kong Property
4738,sell,12000000,0,2,687,490,Mid level,NO.38 TAI HONG STREET,12/31/2018,22.285035,114.224648,"Block 2, Grand Promenade",Sai Wan Ho,  Grand Promenade,"朱永健先生 Edmund, Chu Wing Kin",https://i1.28hse.com/2018/12/743215_2018122297_tmb3.jpg,https://www.28hse.com/en/buy-property-743215.html,Hong Kong Property
5111,sell,4000000,0,open style,285,211,High level,NO.68 YIU HING ROAD,12/29/2018,22.280791,114.221999,"Estate,Home Ownership,Apartment 7 bedroom",Shaukeiwan,  Tung Yan Court,黎小姐 Tammy,https://i1.28hse.com/2018/12/742253_2018120725_tmb3.jpg,https://www.28hse.com/en/buy-property-742253.html,Sunrise Realty Agencies
5589,sell,12000000,0,3,729,639,High level,NOS.154-164 ARGYLE STREET,12/13/2018,22.3224,114.180848,Balwin Court,Ho Man Tin,  Balwin Court,葉小姐,https://i1.28hse.com/2018/12/754643_2018122668_tmb3.jpg,https://www.28hse.com/en/buy-property-733195.html,Century21 I-Home Property
5840,sell,9200000,0,3,951,780,High level,NO.3 LIU TO ROAD,12/22/2018,22.35327093,114.096247,Mount Haven,Tsing Yi,  Mount Haven,郭寶安 Patrick Kwok,https://i1.28hse.com/2018/12/739112_2018121447_tmb3.jpg,https://www.28hse.com/en/buy-property-739112.html,美聯物業
6124,sell,6100000,0,3,840,650,Mid level,NO.11 LEI YUE MUN ROAD,12/20/2018,22.308434,114.232614,"Best Buy in the market,Luxurious decorated,Firewor",Lam Tin,  Lei On Court,程小姐 KIMMYCHENG,https://i1.28hse.com/2019/01/276530_2019015227_tmb3.jpg,https://www.28hse.com/en/buy-property-239576.html,Wings Property
6454,sell,6300000,0,3,856,634,High level,CHOI FUNG PATH,1/8/2019,22.334922,114.213056,Choi Fung Court,Ngau Chi Wan,  Choi Fung Court,黎先生,https://i1.28hse.com/2019/01/748200_2019015164_tmb3.jpg,https://www.28hse.com/en/buy-property-748200.html,Fullmark
6495,sell,7300000,0,1,550,377,Low level,NO.1 WOODLANDS,11/25/2018,22.2817547,114.1507051,Nice Decor 1 Bedroom - Good Location,Western mid-levels,  Woodlands Court,洪先生 JOHN HUNG,https://i1.28hse.com/2018/11/744388_2018115801_tmb3.jpg,https://www.28hse.com/en/buy-property-722413.html,E-House China
7331,sell,7700000,0,3,915,693,Mid level,NO. 1 LOHAS PARK ROAD,10/16/2018,22.2963019,114.2716941,Open and garden view stylish and nice decoration,Tseung Kwan O,  Lohas Park,洪小姐 LisaHung,https://i1.28hse.com/2018/05/460881_2018053301_tmb3.jpg,https://www.28hse.com/en/buy-property-431058.html,Lohas Property
7782,sell,6600000,0,1,502,391,Mid level,NO.1 LARCH STREET,11/12/2018,22.32103105,114.1652837,"By Owner, Estate,Stand-alone Building,Apartment 1 bedroom",Tai Kok Tsui,  Lime Stardom,陳先生,https://i1.28hse.com/2018/11/713736_2018112956_tmb3.jpg,https://www.28hse.com/en/buy-property-713736.html,By Owner
7934,sell,24000000,0,3,1135,864,High level,NO.18 HOI TING ROAD,1/7/2019,22.316765,114.16331,"Block 10, Park Avenue",Olympic,  Park Avenue,"劉思怡小姐 Ashley, Lau Sze Yi",https://i1.28hse.com/2019/01/747370_2019013074_tmb3.jpg,https://www.28hse.com/en/buy-property-747370.html,Hong Kong Property
7972,sell,14900000,0,5 +,2100,2100,Whole Building,Yuen Long,1/3/2019,22.4282218,114.0834152,"Estate,Apartment,House 5 bedroom",Yuen Long,  Village,陳先生,https://i1.28hse.com/2019/01/766430_2019015519_tmb3.jpg,https://www.28hse.com/en/buy-property-745438.html,Leader Properties
8156,sell,54800000,0,3,2288,2049,Low level,NOS.18-40 BELLEVIEW DRIVE,12/24/2018,22.239842,114.193438,"Block 07, Repulse Bay Garden",Repulse Bay,   Garden,"陳潔冰小姐 Maggie, Chan Kit Ping",https://i1.28hse.com/2018/12/739777_2018125279_tmb3.jpg,https://www.28hse.com/en/buy-property-739777.html,Hong Kong Property
8440,sell,9900000,0,4,1200,925,Mid level,18 Castle Peak Rd Tam Mi,1/10/2019,22.4630195,114.0531619,Brand New 4 Rooms!,Yuen Long,  Park Yoho,歐小姐 MS AU,https://i1.28hse.com/2019/01/770462_2019014075_tmb3.jpg,https://www.28hse.com/en/buy-property-749594.html,Jing Chun Property
8452,sell,20000000,0,3,1030,819,High level,NO.80 VICTORIA ROAD NO.33 SAI NING STREET,1/3/2019,22.281418,114.121026,Far away from busy area,Kennedy Town,  Regent Height,佳景物業 Best Fortune Prop Agcy Ltd,https://i1.28hse.com/2019/01/766021_2019014576_tmb3.jpg,https://www.28hse.com/en/buy-property-745004.html,Best Fortune
8483,sell,6500000,0,2,697,552,Low level,99 FUNG CHEUNG ROAD,1/5/2019,22.440293,114.034532,High ceiling with spacious living and bedroom,Yuen Long,  Villa Premiere,關小姐 Ms Kwan,https://i1.28hse.com/2017/06/659377_2017064023_tmb3.jpg,https://www.28hse.com/en/buy-property-659377.html,By Owner
8663,sell,6100000,0,3,516,420,High level,美景街113號,12/18/2018,22.317867,114.191447,selling a nice house in To Kwa Wan,To Kwa Wan,  Wyler Garden,陳生 Ting,https://i1.28hse.com/2018/12/736595_2018122508_tmb3.jpg,https://www.28hse.com/en/buy-property-736595.html,By Owner
8670,sell,14500000,0,3,1007,637,High level,NO.28 SIU SAI WAN ROAD,12/18/2018,22.266584,114.250005,Unit with roof,Chai Wan,  Island Resort,Jaycee,https://i1.28hse.com/2018/11/717721_2018112004_tmb3.jpg,https://www.28hse.com/en/buy-property-717721.html,By Owner
8674,sell,12600000,0,3,2675,2000,Whole Building,183 KAM TIN ROAD,12/17/2018,22.441627,114.071837,"direct owner，3 bedrooms, two car parks",Yuen Long,  Seasons Monarch,SeasonsMonarch_32314 Ms. Kong,https://i1.28hse.com/2018/09/671215_2018093384_tmb3.jpg,https://www.28hse.com/en/buy-property-671215.html,By Owner
8775,sell,5700000,0,2,361,285,High level,NO.351 DES VOEUX ROAD WEST,1/9/2019,22.287058,114.136531,Sea view in City,Shek Tong Tsui,  Kong Chian Tower,佳景物業 Best Fortune Prop Agcy Ltd,https://i1.28hse.com/2018/12/759790_2018121650_tmb3.jpg,https://www.28hse.com/en/buy-property-738558.html,Best Fortune
8779,sell,5000000,0,3,812,601,Low level,NO.638 SAI SHA ROAD,1/9/2019,22.421378,114.224743,MA ON SHAN KAM FUNG COURT PH 01,Ma On Shan,  Kam Fung Court,Kelvin Kelvin Kwok,https://i1.28hse.com/2019/01/770005_2019014914_tmb3.jpg,https://www.28hse.com/en/buy-property-749120.html,C21 GoodWind
8784,sell,7100000,0,open style,400,323,High level,No.1 Yau Cheung Road,1/9/2019,22.31032348,114.1658604,"studio,have clubhouse",Yau Ma Tei,  The Coronation,葉生 Raymond Yip,https://i1.28hse.com/2019/01/769881_2019014041_tmb3.jpg,https://www.28hse.com/en/buy-property-748999.html,Century 21 Splendid Property A
8791,sell,7300000,0,3,700,700,High level,蠔涌新村,1/8/2019,22.35401433,114.2490496,GOOD LOCATION-WITH ROOF,Sai Kung,  Ho Chung New Village,林先生 marco lam,https://i1.28hse.com/2019/01/769601_2019013908_tmb3.jpg,https://www.28hse.com/en/buy-property-748734.html,Sun Sky Property
8953,sell,5800000,0,1,415,301,Mid level,No.28 Belcher's Street,12/29/2018,22.283291,114.130486,Good Choice in Market,Kennedy Town,  Treasure Court,佳景物業 Best Fortune Prop Agcy Ltd,https://i1.28hse.com/2018/12/763387_2018124547_tmb3.jpg,https://www.28hse.com/en/buy-property-742280.html,Best Fortune
9072,sell,7500000,0,3,937,646,Mid level,NOS.19-25 ON KING STREET,1/9/2019,22.394462,114.20772,SHATIN PICTORIAL GDN PH 01,ShaTin,  Pictorial Garden,Ricky鄧先生 Ricky Tang,https://i1.28hse.com/2019/01/769998_2019012973_tmb3.jpg,https://www.28hse.com/en/buy-property-749113.html,C21 GoodWind
9078,sell,7000000,0,3,770,579,Low level,85 PAK LAM ROAD MA WAN,12/19/2018,22.352128,114.061469,"Best Buy,Open and garden view",Ma Wan,  Park Island,陳小姐 Edith Chan,https://i1.28hse.com/2018/12/758486_2018120137_tmb3.jpg,https://www.28hse.com/en/buy-property-737221.html,eHome Property Consultancy Lim
9139,sell,7600000,0,2,718,547,Mid level,NO. 69 SIU LEK YUEN ROAD,12/15/2018,22.383912,114.215991,With tenancy agreement,ShaTin,  Castello,何先生 ROY HO,https://i1.28hse.com/2016/05/289251_2016052244_tmb3.jpg,https://www.28hse.com/en/buy-property-253466.html,Castello Property Agency
9161,sell,8000000,0,3,1000,737,Mid level,NO.1 KIN TUNG ROAD,12/14/2018,22.29166,113.94797,SPECIAL PRICE!!ON SALES!! SEAVIEW 3 BED RM,Tung Chung,  Caribbean Coast,蔡小姐 Sicily Choi,https://i1.28hse.com/2018/12/755700_2018123608_tmb3.jpg,https://www.28hse.com/en/buy-property-734318.html,Tung Chung Property
9184,sell,5900000,0,1,415,301,Mid level,No.28 Belcher's Street,12/13/2018,22.283291,114.130486,"1 bedroom, simple renovation, convenience",Kennedy Town,  Treasure Court,劉先生 Joseph Lau,https://i1.28hse.com/2018/12/754895_2018121870_tmb3.jpg,https://www.28hse.com/en/buy-property-733477.html,萬基地產
9195,sell,9600000,0,2,589,464,Mid level,NO.29 KA WAI MAN ROAD,12/12/2018,22.281691,114.124695,"Nice Decoration, Relax & Comfortable",Kennedy Town,  Cayman Rise,佳景物業 Best Fortune Prop Agcy Ltd,https://i1.28hse.com/2018/11/746527_2018112574_tmb3.jpg,https://www.28hse.com/en/buy-property-724695.html,Best Fortune
9197,sell,13000000,0,3,1045,846,High level,碧翠路31號,12/12/2018,22.337674,114.248518,CLEAR WATER BAY LOW RISE APARTMENT,Clear Water Bay,  Greenview Garden,吳小姐 ROSA NG,https://i1.28hse.com/2018/12/754295_2018121426_tmb3.jpg,https://www.28hse.com/en/buy-property-732859.html,Homeplus Property
9201,sell,10500000,0,2,620,531,High level,NO.101 POK FU LAM ROAD,12/12/2018,22.28228,114.131748,"2 bedrooms with nice decoration, open view",Kennedy Town,  Academic Terrace,劉先生 Joseph Lau,https://i1.28hse.com/2018/12/479401_2018121392_tmb3.jpg,https://www.28hse.com/en/buy-property-449720.html,萬基地產
9289,sell,5900000,0,5 +,1500,1500,Ground Floor,元朗錦上路元崗新村,12/28/2018,22.42155,114.07557,"By Owner, Village House,Apartment 5 bedroom",Yuen Long,  Yuen Kwong Sun Chuen,Mr. Choi,https://i1.28hse.com/2018/12/741678_2018122630_tmb3.jpg,https://www.28hse.com/en/buy-property-741678.html,By Owner
9291,sell,8000000,0,4,800,500,High level,No.462-468 Lockhart Road,12/30/2018,22.2800704,114.1818979,Cozy Studios x4 best investment option,Causeway Bay,  Diamond Mansion,钟,https://i1.28hse.com/2018/12/742776_2018123946_tmb3.jpg,https://www.28hse.com/en/buy-property-742776.html,By Owner
9528,sell,12800000,0,3,1510,1212,Mid level,CASTLE PEAK ROAD CASTLE PEAK BAY SIU LAM,1/10/2019,22.3669269,114.0132595,"East Facing, Sea View",Tuen Mun Sham Tseng,   Palatial Coast,葉小姐 Jennifer Ip,https://i1.28hse.com/2017/07/444224_2017074883_tmb3.jpg,https://www.28hse.com/en/buy-property-413635.html,Easy Land Agency
9535,sell,10800000,0,3,1050,827,High level,NO.38 POKFIELD ROAD,11/19/2018,22.28079703,114.1295722,"By Owner, Stand-alone Building,Apartment 3 bedroom",Kennedy Town,  Pokfield Garden,Mr Cheng,https://i1.28hse.com/2018/11/718664_2018110576_tmb3.jpg,https://www.28hse.com/en/buy-property-718664.html,By Owner
9542,sell,9800000,0,3,1090,875,Mid level,CASTLE PEAK ROAD CASTLE PEAK BAY SIU LAM,1/10/2019,22.3669269,114.0132595,"South East, Mid Floor, Mountain View, CP",Tuen Mun Sham Tseng,   Palatial Coast,葉小姐 Jennifer Ip,https://i1.28hse.com/2018/10/709665_2018100544_tmb3.jpg,https://www.28hse.com/en/buy-property-686257.html,Easy Land Agency
9546,sell,5900000,0,2,800,700,Mid level,鹿尾村118A,10/18/2018,22.39045104,114.2602319,"Commission free: Openview, parking aside, 15 mins",Sai Kung,  Greenview Villas,J Ng Joe,https://i1.28hse.com/2018/10/694930_2018102433_tmb3.jpg,https://www.28hse.com/en/buy-property-694930.html,By Owner
9547,sell,12500000,0,2,1394,947,High level,NO.9 WAH KING HILL ROAD,1/10/2019,22.35468986,114.1362923,"High Floor, Nice View, 2-Side Big Windows",Kwai Chung,  Wonderland Villas,葉小姐 Jennifer Ip,https://i1.28hse.com/2019/01/770471_2019015117_tmb3.jpg,https://www.28hse.com/en/buy-property-749970.html,Easy Land Agency
9559,sell,9600000,0,3,1000,706,High level,NO.9 WAH KING HILL ROAD,1/10/2019,22.35468986,114.1362923,"High Floor, 2 side windows",Kwai Chung,  Wonderland Villas,葉小姐 Jennifer Ip,https://i1.28hse.com/2019/01/709627_2019014405_tmb3.jpg,https://www.28hse.com/en/buy-property-686215.html,Easy Land Agency
9615,sell,21800000,0,open style,2100,2100,Ground Floor,騰龍臺,1/10/2019,22.33396125,114.2350703,SAI KUNG DELUXE HSE 21.8M,Clear Water Bay,  Denon Terrace,林先生 marco lam,https://i1.28hse.com/2019/01/770656_2019010495_tmb3.jpg,https://www.28hse.com/en/buy-property-749790.html,Sun Sky Property
9660,sell,6600000,0,2,606,446,Whole Building,NO.2 ON YUK ROAD,1/7/2019,22.375859,114.106109,Ａ０１３３０５,Tsuen Wan,  Summit Terrace,馮先生 SAM FUNG,https://i1.28hse.com/2019/01/768861_2019013989_tmb3.jpg,https://www.28hse.com/en/buy-property-747934.html,Wealth Property
9717,sell,6600000,0,2,500,320,Mid level,NO.95 CAINE ROAD,12/31/2018,22.28214,114.151349,2 Rooms,Western mid-levels,  Flora Court,emily ho Emily Ho,https://i1.28hse.com/2019/01/731957_2019015656_tmb3.jpg,https://www.28hse.com/en/buy-property-731957.html,By Real Estate Agency
9730,sell,15300000,0,3,1251,953,Low level,Royal Peninsular,1/10/2019,22.304276,114.184419,Royal Peninsular for sale,Hung Hom,  Royal Peninsula,黃生 Walter Wong,https://i1.28hse.com/2018/11/652129_2018114405_tmb3.jpg,https://www.28hse.com/en/buy-property-627077.html,Cheers Properties Services
9737,sell,7600000,0,2,729,554,Mid level,NO.599 SAI SHA ROAD,1/9/2019,22.42898979,114.2437202,Open and garden view,Ma On Shan,  Lake Silver,鄧智宏 WANG,https://i1.28hse.com/2018/09/697932_2018090867_tmb3.jpg,https://www.28hse.com/en/buy-property-674456.html,Midland Realty
9773,sell,8800000,0,2,586,424,High level,NO.55 WUN SHA STREET,1/9/2019,22.278096,114.193345,**VILLA D' ARTE**,Tai Hang,  Villa d\' Arte,嚴先生 Billy Yim (24小時熱線),https://i1.28hse.com/2019/01/770360_2019014681_tmb3.jpg,https://www.28hse.com/en/buy-property-749493.html,Northern Mid-Level Property
10562,sell,17200000,0,3,962,857,High level,NO.6 DRAGON TERRACE,1/9/2019,22.28140759,114.1931217,**Dragon Court**,North Point,  Dragon Court,嚴先生 Billy Yim (24小時熱線),https://i1.28hse.com/2018/10/712766_2018100275_tmb3.jpg,https://www.28hse.com/en/buy-property-689604.html,Northern Mid-Level Property
10689,sell,51800000,0,3,2052,1466,Mid level,NO.18 HANOI ROAD,1/9/2019,22.29781967,114.1735858,The Masterpiece 3房,Tsim Sha Tsui,  The Masterpiece,劉先生 Mr. Lau,https://i1.28hse.com/2019/01/749097_2019015150_tmb3.jpg,https://www.28hse.com/en/buy-property-749097.html,Sun Property
10743,sell,15800000,0,2,786,604,High level,No.1 Yau Cheung Road,1/9/2019,22.31032348,114.1658604,"midium floor, garden view",Yau Ma Tei,  The Coronation,葉生 Raymond Yip,https://i1.28hse.com/2019/01/769879_2019015088_tmb3.jpg,https://www.28hse.com/en/buy-property-748997.html,Century 21 Splendid Property A
10744,sell,9600000,0,1,587,459,High level,No.1 Yau Cheung Road,1/9/2019,22.31032348,114.1658604,midium floor,Yau Ma Tei,  The Coronation,葉生 Raymond Yip,https://i1.28hse.com/2019/01/769876_2019011285_tmb3.jpg,https://www.28hse.com/en/buy-property-748994.html,Century 21 Splendid Property A
10745,sell,28800000,0,3,1207,932,High level,No.1 Yau Cheung Road,1/9/2019,22.31032348,114.1658604,"high floor, seaview",Yau Ma Tei,  The Coronation,葉生 Raymond Yip,https://i1.28hse.com/2019/01/769875_2019012432_tmb3.jpg,https://www.28hse.com/en/buy-property-748993.html,Century 21 Splendid Property A
10749,sell,52000000,0,4,2052,1622,Mid level,No.1 Yau Cheung Road,1/9/2019,22.31032348,114.1658604,"Express Railway,Higher level European living standard,seaview",Yau Ma Tei,  The Coronation,李小姐 Elsa Li,https://i1.28hse.com/2019/01/769869_2019012182_tmb3.jpg,https://www.28hse.com/en/buy-property-748985.html,Century 21 Splendid Property A
10760,sell,6300000,0,1,392,259,Mid level,No. 1 Kwai Heung Street,12/23/2018,22.2871773,114.1429825,"The Met Sublime, premium new flat in Sai Wan",Sai Yin Pun,  The Met. Sublime,封生 Eric Fung,https://i1.28hse.com/2018/12/739335_2018120592_tmb3.jpg,https://www.28hse.com/en/buy-property-739335.html,By Owner
10790,sell,9000000,0,3,868,675,High level,NO. 9 SHA ON STREET,1/9/2019,22.42754187,114.244439,MA ON SHAN MONTE VISTA,Ma On Shan,  Monte Vista,袁小姐 Connie Yuen,https://i1.28hse.com/2019/01/770008_2019013515_tmb3.jpg,https://www.28hse.com/en/buy-property-749123.html,C21 GoodWind
10852,sell,12900000,0,3,1050,1035,Whole Building,錦繡花園河北第十街,12/27/2018,22.48113,114.04687,"Estate,Apartment,House 3 bedroom",Yuen Long,  Fairview Park,邱小姐 candy,https://i1.28hse.com/2019/01/675138_2019013885_tmb3.jpg,https://www.28hse.com/en/buy-property-675138.html,Fullsgood Property
10888,sell,10300000,0,3,750,639,Mid level,必嘉街121號,12/13/2018,22.30367375,114.1905534,3 bedrooms,Whampo,  a Garden,梁先生 SAM,https://i1.28hse.com/2019/01/733229_2019015059_tmb3.jpg,https://www.28hse.com/en/buy-property-733229.html,Sunrise Property
10895,sell,15500000,0,3,980,905,High level,LUNG PING ROAD,1/8/2019,22.34224149,114.1663599,High floor apartament at Beacon Heights,Kowloon Tong,  Beacon Heights,Rosi,https://i1.28hse.com/2019/01/748755_2019015311_tmb3.jpg,https://www.28hse.com/en/buy-property-748755.html,By Owner
10930,sell,59000000,0,4,2800,2096,Whole Building,25-27 Bisney Road,1/8/2019,22.2697703,114.128259,Bright & Spacious Family Townhouse,Pok Fu Lam,  Bisney Gardens,小姐 Victoria Allan,https://i1.28hse.com/2019/01/769574_2019013243_tmb3.jpg,https://www.28hse.com/en/buy-property-748704.html,Habitat Property
10942,sell,3800000,0,2,451,295,High level,NOS.94-110 TUEN MUN HEUNG SZE WUI ROAD,1/8/2019,22.397633,113.975201,"Stand-alone Building,Apartment 2 bedroom",Tuen Mun,  Honley Court,陳健威 Ray Chan,https://i1.28hse.com/2019/01/748682_2019015956_tmb3.jpg,https://www.28hse.com/en/buy-property-748682.html,Midland Realty
10968,sell,8500000,0,3,958,713,Mid level,NO. 1 LOHAS PARK ROAD,1/3/2019,22.2963019,114.2716941,"Estate,Apartment 3 bedroom",Tseung Kwan O,  Lohas ParkTHE CAPITO,劉政東 Billy Lau,https://i1.28hse.com/2019/01/766269_2019012374_tmb3.jpg,https://www.28hse.com/en/buy-property-745273.html,Midland Realty
10998,sell,9000000,0,1,650,498,Ground Floor,NO.47 PATERSON STREET,11/8/2018,22.280932,114.185243,"Paterson Building - Western Style, Big Bedroom, Good Layout",Causeway Bay,  Paterson Building,陳小姐 Edith Chan,https://i1.28hse.com/2018/08/686608_2018082442_tmb3.jpg,https://www.28hse.com/en/buy-property-662817.html,eHome Property Consultancy Lim
11005,sell,6600000,0,3,706,526,Mid level,88 PAK WO ROAD,1/8/2019,22.48547305,114.1411686,"Estate,Apartment 3 bedroom",Fan Ling,  Flora Plaza,邱巧明 YAU HAU MING,https://i1.28hse.com/2019/01/748614_2019011535_tmb3.jpg,https://www.28hse.com/en/buy-property-748614.html,Century 21 Goodwin
11011,sell,5300000,0,2,476,386,Mid level,NO.11 SHAU KEI WAN MAIN STREET EAST,12/15/2018,22.28171039,114.2308357,"Stand-alone Building,Apartment 2 bedroom",Shaukeiwan,  Kim Fat Mansion,胡小姐 Wendy Wu,https://i1.28hse.com/2018/11/734285_2018112352_tmb3.jpg,https://www.28hse.com/en/buy-property-711837.html,Vision Property
11018,sell,800000,0,open style,140,90,High level,77/87 Wang Lung St. Tsuen Wan,1/8/2019,22.365962,114.118817,Office/industrial 7 bedroom,Tsuen Wan,  Richwealth Industrial Building,歐先生 IVAN,https://i1.28hse.com/2019/01/769462_2019011667_tmb3.jpg,https://www.28hse.com/en/buy-property-748585.html,Century 21 Wystan Property
11023,sell,6500000,0,2,627,457,Mid level,NO.100 YEUNG UK ROAD,11/23/2018,22.366887,114.1171145,"Estate,Apartment 2 bedroom",Tsuen Wan,  Chelsea Court,吳希評小姐 PAULINE WU,https://i1.28hse.com/2019/01/743621_2019014697_tmb3.jpg,https://www.28hse.com/en/buy-property-721631.html,Midland Property
11033,sell,8200000,0,2,608,445,High level,1 TONG TAK STREET,1/10/2019,22.3094444,114.2625,Tseung Kwan O Plaza,Tseung Kwan O,   Plaza,世紀21物業(將軍澳),https://i1.28hse.com/2019/01/749921_2019012786_tmb3.jpg,https://www.28hse.com/en/buy-property-749921.html,Century 21 (Tseung Kwan O)
11034,sell,13900000,0,3,985,728,High level,1 TONG TAK STREET,1/10/2019,22.3094444,114.2625,Tseung Kwan O Plaza,Tseung Kwan O,   Plaza,世紀21物業(將軍澳),https://i1.28hse.com/2019/01/749920_2019011724_tmb3.jpg,https://www.28hse.com/en/buy-property-749920.html,Century 21 (Tseung Kwan O)
11043,sell,13000000,0,3,878,654,High level,NO.15 PUI SHING ROAD,1/8/2019,22.315718,114.264769,"Estate,Apartment 3 bedroom",Tseung Kwan O,  Residence Oasis,黃彩萍 APPLE WONG,https://i1.28hse.com/2019/01/769325_2019015301_tmb3.jpg,https://www.28hse.com/en/buy-property-748446.html,Hong Kong Property
11046,sell,6600000,0,3,712,554,Mid level,NO.1 KAM YING ROAD,1/8/2019,22.426285,114.23982,"Estate,Home Ownership,Apartment 3 bedroom",Ma On Shan,  Kam Lung Court,呂小姐 Suki Lui,https://i1.28hse.com/2019/01/769372_2019012952_tmb3.jpg,https://www.28hse.com/en/buy-property-748495.html,Century 21 Goodwin Property
11052,sell,6200000,0,1,500,306,High level,NO.3 KENNEDY STREET,11/30/2018,22.273271,114.174234,"Stand-alone Building,Apartment 1 bedroom",Wan Chai,  Chi Lok Terrace,陳小姐 JOYCE CHAN,https://i1.28hse.com/2018/09/696579_2018095022_tmb3.jpg,https://www.28hse.com/en/buy-property-673040.html,Century21 Asia
11053,sell,7100000,0,2,600,427,High level,No.110-116 Jaffe Road,11/30/2018,22.2829894,114.128343,"Stand-alone Building,Apartment 2 bedroom",Wan Chai,  Mei Fai Mansion,陳小姐 JOYCE CHAN,https://i1.28hse.com/2018/09/696186_2018092709_tmb3.jpg,https://www.28hse.com/en/buy-property-672619.html,Century21 Asia
11056,sell,5800000,0,2,500,349,High level,No.148-150 Johnston Road,12/7/2018,22.276516,114.17422,"Stand-alone Building,Apartment 2 bedroom",Wan Chai,  Chung Nam Mansion,陳小姐 JOYCE CHAN,https://i1.28hse.com/2018/12/729626_2018121428_tmb3.jpg,https://www.28hse.com/en/buy-property-729626.html,Century21 Asia
11071,sell,15000000,0,3,1203,942,High level,NO.8 HIN TAI STREET,1/8/2019,22.362596,114.174819,"Estate,Apartment 3 bedroom",Tai Wai,  Parc Royale,卓美紅 Ms. Maggie,https://i1.28hse.com/2019/01/769338_2019014427_tmb3.jpg,https://www.28hse.com/en/buy-property-748460.html,Midland Realty
11072,sell,5600000,0,2,404,316,Low level,"NOS.46-47 PRAYA, KENNEDY TOWN",1/8/2019,22.283887,114.130341,"2 bedrooms, convenience",Kennedy Town,  Nan Hai Mansion,劉先生 Joseph Lau,https://i1.28hse.com/2019/01/769337_2019011397_tmb3.jpg,https://www.28hse.com/en/buy-property-748459.html,萬基地產
11073,sell,6800000,0,2,469,389,High level,必嘉街121號,1/8/2019,22.30367375,114.1905534,"Estate,Apartment 2 bedroom",Whampo,  a GardenSITE 2,張志昂 Alex Cheung,https://i1.28hse.com/2019/01/748457_2019015905_tmb3.jpg,https://www.28hse.com/en/buy-property-748457.html,Easywin Property
11076,sell,8500000,0,3,958,762,Mid level,NO. 1 LOHAS PARK ROAD,1/2/2019,22.2963019,114.2716941,"Estate,Apartment 3 bedroom",Tseung Kwan O,  Lohas ParkTHE CAPITO,蔡小姐 MISS TSOI,https://i1.28hse.com/2017/12/528117_2017121299_tmb3.jpg,https://www.28hse.com/en/buy-property-499841.html,Lohas Property
11078,sell,17800000,0,3,1119,1067,High level,8 LARUNA VERDE AVENUE,1/8/2019,22.30749,114.191941,"Estate,Apartment 3 bedroom",Hung Hom,  Laguna Verde,吳先生 Joe Ng,https://i1.28hse.com/2019/01/769326_2019010575_tmb3.jpg,https://www.28hse.com/en/buy-property-748448.html,Easywin Property
11087,sell,9000000,0,3,862,631,Low level,WAN HANG ROAD,1/8/2019,22.32246767,114.256804,"By Owner, Estate,Apartment 3 bedroom",Tseung Kwan O,  Metro CityPHASE III,Red red Agnes Cheung,https://i1.28hse.com/2019/01/748424_2019013033_tmb3.jpg,https://www.28hse.com/en/buy-property-748424.html,By Owner
11088,sell,4300000,0,2,494,451,High level,33 CHEUNG SHEK ROAD CHEUNG CHAU,1/8/2019,22.204008,114.024369,"Estate,Apartment 2 bedroom",Cheung Chau,  Greenery Crest,勵進物業代理及管理公司,https://i1.28hse.com/2019/01/748426_2019010216_tmb3.jpg,https://www.28hse.com/en/buy-property-748426.html,By Real Estate Agency
11093,sell,5100000,0,2,394,335,High level,美景街113號,1/8/2019,22.317867,114.191447,"Estate,Apartment 2 bedroom",To Kwa Wan,  Wyler Garden,譚先生 MARCO TAM,https://i1.28hse.com/2019/01/769294_2019013849_tmb3.jpg,https://www.28hse.com/en/buy-property-748414.html,KAI MEI PROPERTY AGENCY
11097,sell,14000000,0,2,829,640,Mid level,NO. 180 JAVA ROAD,12/12/2018,22.29235747,114.2017168,"New assigned,South With key. welcome for appointement for visit.",North Point,  Island Lodge,家居物業代理 Harmony Home Agency Ltd,https://i1.28hse.com/2018/12/753981_2018124821_tmb3.jpg,https://www.28hse.com/en/buy-property-732533.html,Harmony Home Agency
11098,sell,8200000,0,2,630,481,Mid level,NO.8 OI KING STREET,1/8/2019,22.3026748,114.1869438,"Estate,Apartment 2 bedroom",Hung Hom,  Harbour Place,吳先生 Joe Ng,https://i1.28hse.com/2019/01/769283_2019014789_tmb3.jpg,https://www.28hse.com/en/buy-property-748401.html,Easywin Property
11099,sell,6800000,0,2,593,474,Mid level,NO.398 CASTLE PEAK ROAD TSUEN WAN,1/8/2019,22.376377,114.111252,"inner garden view New assigned,With key. welcome for appointement for visit.",Tsuen Wan,  Discovery Park,家居物業代理 Harmony Home Agency Ltd,https://i1.28hse.com/2018/08/679515_2018081967_tmb3.jpg,https://www.28hse.com/en/buy-property-655392.html,Harmony Home Agency
11109,sell,8100000,0,2,643,491,Mid level,NO.833 LAI CHI KOK ROAD,1/8/2019,22.334587,114.148846,"Estate,Apartment 2 bedroom",Lai Chi Kok,  Liberte,吳昊 Daniel,https://i1.28hse.com/2019/01/748388_2019015194_tmb3.jpg,https://www.28hse.com/en/buy-property-748388.html,Hong Kong Property
11111,sell,7700000,0,3,747,646,High level,NO.14 TAI MAN STREET,12/19/2018,22.266988,114.234627,"Estate,Home Ownership,Apartment 3 bedroom",Chai Wan,  Greenwood Terrace,馮小姐 Kitty Fung,https://i1.28hse.com/2018/12/758560_2018120621_tmb3.jpg,https://www.28hse.com/en/buy-property-737325.html,Sweet House Real Estate Agency
11116,sell,4800000,0,1,411,276,Mid level,"NOS.64, 66 & 66A KIMBERLEY ROAD",11/13/2018,22.30138575,114.1753829,"Stand-alone Building,Apartment 1 bedroom",Tsim Sha Tsui,  Shun Fai Building,小彥,https://i1.28hse.com/2018/11/714747_2018112712_tmb3.jpg,https://www.28hse.com/en/buy-property-714747.html,By Real Estate Agency
11124,sell,23000000,0,2,1200,930,Mid level,No.271-275 Gloucester Road,1/8/2019,22.281654,114.18337,"Stand-alone Building,Apartment 2 bedroom",Causeway Bay,  Hoi To Building,陳先生 Mr. Chan,https://i1.28hse.com/2019/01/769258_2019011668_tmb3.jpg,https://www.28hse.com/en/buy-property-748374.html,Chan Fung Properties
11126,sell,5200000,0,2,544,447,Mid level,NO.50 CHUN WAH ROAD,1/8/2019,22.323118,114.219702,"Home Ownership,Apartment 2 bedroom",Ngau Tau Kok,  Lok Nga Court,陳鳳群 Pat Chan,https://i1.28hse.com/2019/01/748356_2019013202_tmb3.jpg,https://www.28hse.com/en/buy-property-748356.html,Hong Kong Property
11127,sell,8600000,0,2,666,538,High level,NO.8 NGA YING CHAU STREET TSING YI,11/12/2018,22.362227,114.105808,Villa Esplanada,Tsing Yi,  Villa Esplanada,黃雪梅 Tina,https://i1.28hse.com/2018/11/713952_2018110420_tmb3.jpg,https://www.28hse.com/en/buy-property-713952.html,美聯物業
11129,sell,8000000,0,2,661,537,Mid level,NO.8 NGA YING CHAU STREET TSING YI,11/10/2018,22.362227,114.105808,Villa Esplanada,Tsing Yi,  Villa Esplanada,詹皓泰 Andy Jim,https://i1.28hse.com/2018/12/712628_2018120485_tmb3.jpg,https://www.28hse.com/en/buy-property-712628.html,美聯物業
11130,sell,7900000,0,2,627,510,High level,NO.15 PUI SHING ROAD,1/8/2019,22.315718,114.264769,"By Owner, Estate,Apartment 2 bedroom",Tseung Kwan O,  Residence Oasis,Miss chan,https://i1.28hse.com/2019/01/748370_2019013105_tmb3.jpg,https://www.28hse.com/en/buy-property-748370.html,By Owner
11133,sell,7400000,0,2,651,471,High level,NO.863 LAI CHI KOK ROAD,1/6/2019,22.334478,114.1476,"Estate,Apartment 2 bedroom",Lai Chi Kok,  Banyan Garden,吳昊 Daniel,https://i1.28hse.com/2019/01/747290_2019015201_tmb3.jpg,https://www.28hse.com/en/buy-property-747290.html,Hong Kong Property
11137,sell,6800000,0,2,595,463,High level,8 CHUNG WA ROAD,1/8/2019,22.31666153,114.2657518,"Estate,Apartment 2 bedroom",Tseung Kwan O,  East Point,蔡煜培 Kobe Cai,https://i1.28hse.com/2019/01/769148_2019010156_tmb3.jpg,https://www.28hse.com/en/buy-property-748253.html,Hong Kong Property
11142,sell,6600000,0,3,600,476,High level,1R Waterloo Rd.,1/8/2019,22.3126422,114.1680077,"Open view,stylish and nice decoration,Spacious area",Kennedy Town,  Kam Tong Building,蕭小姐 Shirley Siu,https://i1.28hse.com/2018/11/744814_2018110491_tmb3.jpg,https://www.28hse.com/en/buy-property-722875.html,Golden River Property
11145,sell,5100000,0,2,420,292,Mid level,1A Sands Street,1/8/2019,22.283534,114.129613,"South-west,stylish and nice decoration",Kennedy Town,  Tai Sang Building,蕭小姐 Shirley Siu,https://i1.28hse.com/2018/10/724548_2018101254_tmb3.jpg,https://www.28hse.com/en/buy-property-702089.html,Golden River Property
11146,sell,2200000,0,2,572,443,High level,NO.21 WAH MING ROAD,12/9/2018,22.484548,114.140154,"Estate,Home Ownership,Apartment 2 bedroom",Fan Ling,  Wah Ming Est,天晋物業 Top Rise Property,https://i1.28hse.com/2019/01/620281_2019012408_tmb3.jpg,https://www.28hse.com/en/buy-property-593788.html,Top Rise Property
11147,sell,6900000,0,1,466,311,High level,"NO.1 NEW PRAYA, KENNEDY TOWN",1/8/2019,22.28390936,114.1292583,"North-east,Sea view,open and fresh air With roof",Kennedy Town,  Wah Po Building,蕭小姐 Shirley Siu,https://i1.28hse.com/2018/09/694319_2018090348_tmb3.jpg,https://www.28hse.com/en/buy-property-670653.html,Golden River Property
11151,sell,5800000,0,2,500,372,Mid level,NOS.116/122 BELCHERS STREET,1/8/2019,22.282251,114.12743,"South-east,Building view,convenient transportation,stylish and nice decoration",Kennedy Town,  Luen Hong Apartments,蕭小姐 Shirley Siu,https://i1.28hse.com/2019/01/769231_2019012447_tmb3.jpg,https://www.28hse.com/en/buy-property-748347.html,Golden River Property
11154,sell,4400000,0,open style,356,233,High level,NO.8 PAK KUNG STREET,12/24/2018,22.311392,114.186613,"Stand-alone Building,Apartment 7 bedroom",Hung Hom,  The Met. Focus,許名鋒 Calvin Hui,https://i1.28hse.com/2018/12/739828_2018121597_tmb3.jpg,https://www.28hse.com/en/buy-property-739828.html,Century 21 Links Properties
11156,sell,14800000,0,3,1203,942,Low level,NO.8 HIN TAI STREET,11/15/2018,22.362596,114.174819,"Estate,Apartment 3 bedroom",Tai Wai,  Parc Royale,鍾凱麟 Ethan Chung,https://i1.28hse.com/2018/08/671619_2018081454_tmb3.jpg,https://www.28hse.com/en/buy-property-647313.html,Midland Realty
11157,sell,51800000,0,4,2312,1737,High level,NO. 8 FO CHUN ROAD,12/12/2018,22.43209385,114.204453,"Estate,Apartment 4 bedroom",Tai Po,  Providence Peak,鍾凱麟 Ethan Chung,https://i1.28hse.com/2018/12/753997_2018120830_tmb3.jpg,https://www.28hse.com/en/buy-property-732553.html,Midland Realty
11158,sell,26500000,0,4,1750,1333,High level,NO.8 CHE KUNG MIU ROAD,12/4/2018,22.37476,114.185953,"Estate,Apartment 4 bedroom",Tai Wai,  The Riverpark,鍾凱麟 Ethan Chung,https://i1.28hse.com/2018/09/687091_2018095386_tmb3.jpg,https://www.28hse.com/en/buy-property-663272.html,Midland Realty
11159,sell,22000000,0,3,1945,1592,High level,NOS.1-5 HIN TAI STREET,12/12/2018,22.362171,114.177023,"Estate,Apartment 3 bedroom",Tai Wai,  Julimount Garden,鍾凱麟 Ethan Chung,https://i1.28hse.com/2018/12/754007_2018124503_tmb3.jpg,https://www.28hse.com/en/buy-property-732560.html,Midland Realty
11160,sell,11300000,0,2,1025,880,Low level,2 LUNG PAK STREET,11/15/2018,22.364176,114.179208,"Estate,Apartment 2 bedroom",Tai Wai,  World-Wide Gardens,鍾凱麟 Ethan Chung,https://i1.28hse.com/2018/12/609529_2018123507_tmb3.jpg,https://www.28hse.com/en/buy-property-582595.html,Midland Realty
11164,sell,16800000,0,4,1319,1005,High level,紅荔道8號,1/8/2019,22.304276,114.184419,"Estate,Apartment 4 bedroom",Hung Hom,  Royal Peninsula,謝小姐 Moon Tse,https://i1.28hse.com/2019/01/769214_2019015141_tmb3.jpg,https://www.28hse.com/en/buy-property-748327.html,Fortune Real Estate
11167,sell,22000000,0,3,1200,932,High level,NO.10 CLEVELAND STREET,1/8/2019,22.28259395,114.1859588,"Stand-alone Building,Apartment 3 bedroom",Causeway Bay,  Marco Polo Mansion,陳先生 Mr. Chan,https://i1.28hse.com/2019/01/769209_2019015908_tmb3.jpg,https://www.28hse.com/en/buy-property-748322.html,Chan Fung Properties
11171,sell,22500000,0,3,1032,838,High level,NO.1 AUSTIN ROAD WEST,1/8/2019,22.3065833,114.1622778,"Estate,Apartment 3 bedroom",Kowloon Station,  Sorrento,羅小姐 Juli Lo,https://i1.28hse.com/2019/01/769206_2019014280_tmb3.jpg,https://www.28hse.com/en/buy-property-748319.html,Century 21 Splendid Property A
11176,sell,5900000,0,2,472,389,High level,NO.70 SAI YEE STREET,1/8/2019,22.319023,114.172113,"Estate,Apartment 2 bedroom",Mong Kok,  Tak Bo Building,楊先生 Terence Yeung,https://i1.28hse.com/2019/01/492407_2019013526_tmb3.jpg,https://www.28hse.com/en/buy-property-463377.html,Fortunaires Property
11182,sell,9900000,0,3,749,557,Low level,NO.1 TAI PING SHAN STREET,1/8/2019,22.284433,114.148981,"Stand-alone Building,Apartment 3 bedroom",Sheung Wan,  Goodview Court,徐小姐 MS TSUI,https://i1.28hse.com/2018/07/628869_2018070792_tmb3.jpg,https://www.28hse.com/en/buy-property-628869.html,A.H. Property
11189,sell,9600000,0,3,770,593,High level,NO.8 OI KING STREET,1/8/2019,22.3026748,114.1869438,"Estate,Apartment 3 bedroom",Hung Hom,  Harbour Place,洪先生 Jeff Hung,https://i1.28hse.com/2019/01/769184_2019010570_tmb3.jpg,https://www.28hse.com/en/buy-property-748292.html,Easywin Property
11190,sell,6800000,0,2,469,389,High level,必嘉街121號,1/8/2019,22.30367375,114.1905534,"Estate,Apartment 2 bedroom",Whampo,  a GardenSITE 2,吳先生 Joe Ng,https://i1.28hse.com/2019/01/769183_2019013562_tmb3.jpg,https://www.28hse.com/en/buy-property-748291.html,Easywin Property
11192,sell,7800000,0,2,639,497,Mid level,No.8 Wu Kai Sha Road,1/9/2019,22.43087258,114.2426181,MA ON SHAN DOUBLE COVE PH 01,Ma On Shan,  Double Cove,呂小姐 Suki Lui,https://i1.28hse.com/2019/01/770009_2019015494_tmb3.jpg,https://www.28hse.com/en/buy-property-749124.html,C21 GoodWind
11194,sell,6300000,0,2,354,284,Low level,70 Wan Chai Road,1/11/2019,22.276372,114.1746315,"Estate,Apartment 2 bedroom",Wan Chai,  Fully Building,李嘉慧 Florence Lee,https://i1.28hse.com/2019/01/750250_2019010698_tmb3.jpg,https://www.28hse.com/en/buy-property-750250.html,Qfang.com
11195,sell,8300000,0,2,656,436,High level,NO.28 SIU SAI WAN ROAD,1/11/2019,22.266584,114.250005,"Estate,Apartment 2 bedroom",Chai Wan,  Island Resort,李咏詩 Vincy Lee,https://i1.28hse.com/2019/01/750249_2019014305_tmb3.jpg,https://www.28hse.com/en/buy-property-750249.html,Qfang.com
11196,sell,35000000,0,3,1590,1296,High level,NO. 555 VICTORIA ROAD,1/11/2019,22.261726,114.131668,"Estate,Apartment 3 bedroom",Baguio Villa,  ,紀遠寧 Thomas Kei,https://i1.28hse.com/2019/01/750248_2019013267_tmb3.jpg,https://www.28hse.com/en/buy-property-750248.html,Qfang.com
11198,sell,5600000,0,1,568,467,Low level,NO.50 CHUN WAH ROAD,1/10/2019,22.323118,114.219702,"Estate,Home Ownership,Apartment 1 bedroom",Ngau Tau Kok,  Lok Nga Court,陳婉媚 May Chan,https://i1.28hse.com/2019/01/749547_2019010747_tmb3.jpg,https://www.28hse.com/en/buy-property-749547.html,Qfang.com
11202,sell,5100000,0,3,700,700,Ground Floor,WANG CHAU,1/8/2019,22.453945,114.02614,"Village House,Apartment 3 bedroom",Yuen Long,  Ting Fook Villas,陳生 JAY CHAN,https://i1.28hse.com/2018/09/673944_2018091182_tmb3.jpg,https://www.28hse.com/en/buy-property-673944.html,Charming Property Agency
11203,sell,8200000,0,2,559,432,High level,NO.8 OI KING STREET,1/8/2019,22.3026748,114.1869438,"Estate,Apartment 2 bedroom",Hung Hom,  Harbour Place,洪先生 Jeff Hung,https://i1.28hse.com/2018/10/720698_2018102031_tmb3.jpg,https://www.28hse.com/en/buy-property-698112.html,Easywin Property
11204,sell,8500000,0,3,807,605,Mid level,8 PUI SHING ROAD,1/7/2019,22.314341,114.264074,"Estate,Apartment 3 bedroom",Tseung Kwan O,  Nan Fung Plaza,鄧浩源 Mike Tang,https://i1.28hse.com/2019/01/768851_2019012332_tmb3.jpg,https://www.28hse.com/en/buy-property-747924.html,Midland Property
11230,sell,7800000,0,2,562,482,Low level,TAIKOO SHING,1/4/2019,22.28680818,114.2173326,"Estate,Apartment 2 bedroom",Taikoo Shing,  TaiKoo Shing,李小斌(開心) Happy Lee,https://i1.28hse.com/2019/01/766631_2019010349_tmb3.jpg,https://www.28hse.com/en/buy-property-745640.html,Easy Property
11239,sell,3800000,0,open style,358,252,Mid level,NOS.11-15 FUNG YAU STREET NORTH,1/7/2019,22.319243,114.175566,"Stand-alone Building,Apartment 7 bedroom",Yuen Long,  Yik Fat Building,鄧小姐,https://i1.28hse.com/2019/01/747901_2019012182_tmb3.jpg,https://www.28hse.com/en/buy-property-747901.html,Midland Realty
11242,sell,10500000,0,3,940,688,Mid level,NO.8 CHO YUEN STREET,1/8/2019,22.293942,114.237107,"Best Buy,Open and garden view",Yau Tong,  The Spectacle,程小姐 kimmy cheng,https://i1.28hse.com/2019/01/769099_2019015417_tmb3.jpg,https://www.28hse.com/en/buy-property-748186.html,Wings Property
11246,sell,6500000,0,2,544,422,High level,8 YUEN LUNG STREET,1/7/2019,22.44222371,114.0363157,"Estate,Apartment 2 bedroom",Yuen Long,  Yoho Town,王偉健 KENWONG,https://i1.28hse.com/2019/01/747892_2019013733_tmb3.jpg,https://www.28hse.com/en/buy-property-747892.html,Midland Realty
11262,sell,9200000,0,3,793,607,Mid level,市地段 504 號,12/13/2018,22.44359463,114.0365517,"Estate,Apartment 3 bedroom",Yuen Long,  Yoho Midtown,蘇麗君 Ms so,https://i1.28hse.com/2018/11/733131_2018112264_tmb3.jpg,https://www.28hse.com/en/buy-property-733131.html,Midland Property
11263,sell,6300000,0,3,888,685,Mid level,NO.1 CASTLE PEAK ROAD CASTLE PEAK BAY,12/24/2018,22.368713,113.994914,"Estate,Studio,Apartment 3 bedroom",Tuen Mun Sham Tseng,   Hong Kong Gold Coast,鄭先生 IVAN,https://i1.28hse.com/2018/12/760911_2018123521_tmb3.jpg,https://www.28hse.com/en/buy-property-739736.html,Century21 Sky On
11264,sell,6900000,0,3,855,621,Mid level,NO.28 TSING FAT STREET,12/5/2018,22.36374,113.998787,"Estate,Studio,Apartment 3 bedroom",Tuen Mun Sham Tseng,   Aqua Blue,鄭先生 IVAN,https://i1.28hse.com/2019/01/750023_2019010113_tmb3.jpg,https://www.28hse.com/en/buy-property-728407.html,Century21 Sky On
11265,sell,5900000,0,2,618,527,High level,NO.9 TUEN HING ROAD,1/8/2019,22.391733,113.980454,"By Owner, Estate,Apartment 2 bedroom",Tuen Mun,  Villa Tiara,駱太,https://i1.28hse.com/2019/01/748128_2019013896_tmb3.jpg,https://www.28hse.com/en/buy-property-748128.html,By Owner
11271,sell,4500000,0,2,739,612,High level,NO.12 STATION LANE,12/27/2018,22.307915,114.187185,"Estate,Home Ownership,Apartment 2 bedroom",Hung Hom,  Ka Wai Chuen,天晋物業 Top Rise Property,https://i1.28hse.com/2018/07/214885_2018072228_tmb3.jpg,https://www.28hse.com/en/buy-property-164220.html,Top Rise Property
11287,sell,5700000,0,3,710,554,Low level,NO.20 PO LAM ROAD NORTH,1/7/2019,22.326237,114.257393,"East,mountain view",Tseung Kwan O,  Ying Ming Court,羅先生 Vincent Lo,https://i1.28hse.com/2019/01/748084_2019015474_tmb3.jpg,https://www.28hse.com/en/buy-property-748084.html,En Tie Property
11289,sell,5200000,0,2,550,495,Low level,NO.1 PO LAM ROAD NORTH,1/7/2019,22.319737,114.253022,"South-west,mountain view",Tseung Kwan O,  Hong Sing Garden,羅先生 Vincent Lo,https://i1.28hse.com/2019/01/748081_2019010425_tmb3.jpg,https://www.28hse.com/en/buy-property-748081.html,En Tie Property
11291,sell,6700000,0,2,459,376,Mid level,11-21 WHITTY STREET,12/20/2018,22.286656,114.136766,"Estate,Apartment 2 bedroom",Shek Tong Tsui,  Chong Yip Centre,黃生 William,https://i1.28hse.com/2018/12/737610_2018121152_tmb3.jpg,https://www.28hse.com/en/buy-property-737610.html,Joe Asia Property Agency
11292,sell,6600000,0,2,515,340,High level,Nos.374/376 Des Voeux Road West,12/18/2018,22.286824,114.137443,"Stand-alone Building,Apartment 2 bedroom",Shek Tong Tsui,  Grace Mansion,黃生 William,https://i1.28hse.com/2018/12/736735_2018125553_tmb3.jpg,https://www.28hse.com/en/buy-property-736735.html,Joe Asia Property Agency
11293,sell,5500000,0,1,408,264,Low level,NO.163 BELCHERS STREET,12/15/2018,22.282522,114.127023,"Stand-alone Building,Apartment 1 bedroom",Kennedy Town,  WestView Height,黃生 William,https://i1.28hse.com/2018/12/734971_2018124750_tmb3.jpg,https://www.28hse.com/en/buy-property-734971.html,Joe Asia Property Agency
11296,sell,6700000,0,2,668,527,High level,42 Fei Fung Street,1/7/2019,22.34376,114.1962567,"Estate,Apartment 2 bedroom",Wong Tai Sin,  Evergreen Towers,吳小姐 SANDY NG,https://i1.28hse.com/2019/01/768994_2019011315_tmb3.jpg,https://www.28hse.com/en/buy-property-748075.html,Gamway Property
11297,sell,4500000,0,1,420,286,High level,NOS. 183-189 FA YUEN STREET,11/18/2018,22.323087,114.170181,"Stand-alone Building,Apartment 1 bedroom",Mong Kok,  Siu Yip Building,黃生 Ivan Wong,https://i1.28hse.com/2018/11/740461_2018112946_tmb3.jpg,https://www.28hse.com/en/buy-property-718239.html,Sirius Property
11301,sell,6500000,0,3,605,442,High level,1 TONG TAK STREET,1/7/2019,22.3094444,114.2625,"Estate,Apartment 3 bedroom",Tseung Kwan O,   Plaza,李小姐 Ms. Li,https://www.28hse.com/en/utf8/dreamimages/nophoto150.jpg,https://www.28hse.com/en/buy-property-748064.html,YK Property Agency
11304,sell,15000000,0,4,1039,820,High level,NO.7 PEACE AVENUE,1/7/2019,22.31925695,114.1738567,"Estate,Apartment 4 bedroom",Ho Man Tin,  Fair Way Garden,戴生 Jay Tai,https://i1.28hse.com/2019/01/768977_2019014782_tmb3.jpg,https://www.28hse.com/en/buy-property-748060.html,Kwong Shun Property
11319,sell,6900000,0,3,688,502,Mid level,NO. 9 YUK NGA LANE,1/7/2019,22.324117,114.253801,"Estate,Apartment 3 bedroom",Tseung Kwan O,  Well On Garden,李小姐 RUBY LEE,https://i1.28hse.com/2019/01/768941_2019011956_tmb3.jpg,https://www.28hse.com/en/buy-property-748022.html,Hong Kong Property
11320,sell,6600000,0,2,584,420,Mid level,WAN HANG ROAD,1/7/2019,22.32246767,114.256804,"Estate,Apartment 2 bedroom",Tseung Kwan O,  Metro City,李小姐 RUBY LEE,https://i1.28hse.com/2019/01/768930_2019010024_tmb3.jpg,https://www.28hse.com/en/buy-property-748010.html,Hong Kong Property
11321,sell,10000000,0,3,930,698,Mid level,8 PUI SHING ROAD,1/7/2019,22.314341,114.264074,"Estate,Apartment 3 bedroom",Tseung Kwan O,  Nan Fung Plaza,李小姐 RUBY LEE,https://i1.28hse.com/2019/01/768915_2019014494_tmb3.jpg,https://www.28hse.com/en/buy-property-747994.html,Hong Kong Property
11323,sell,9800000,0,3,1069,813,High level,NO. 1 LOHAS PARK ROAD,1/7/2019,22.2963019,114.2716941,"Estate,Apartment 3 bedroom",Tseung Kwan O,  Lohas ParkLE PRIME O,李小姐 RUBY LEE,https://i1.28hse.com/2019/01/768897_2019015817_tmb3.jpg,https://www.28hse.com/en/buy-property-747973.html,Hong Kong Property
11324,sell,8000000,0,2,674,499,Mid level,88 O KING ROAD,1/7/2019,22.30075543,114.2546529,"Estate,Apartment 2 bedroom",Tseung Kwan O,  Ocean Shores,李小姐 RUBY LEE,https://i1.28hse.com/2019/01/768891_2019011271_tmb3.jpg,https://www.28hse.com/en/buy-property-747965.html,Hong Kong Property
11327,sell,8300000,0,2,617,465,Mid level,9 TONG TAK STREET,1/7/2019,22.30724,114.257113,"Estate,Apartment 2 bedroom",Tseung Kwan O,  Park Central,李小姐 RUBY LEE,https://i1.28hse.com/2019/01/768834_2019012310_tmb3.jpg,https://www.28hse.com/en/buy-property-747906.html,Hong Kong Property
11328,sell,6300000,0,2,518,428,High level,85 TSUEN KING CIRCUIT,11/8/2018,22.378448,114.110082,"Estate,Apartment 2 bedroom",Tsuen Wan,  Tsuen King Garden,何生 KENNY,https://i1.28hse.com/2018/11/711165_2018115518_tmb3.jpg,https://www.28hse.com/en/buy-property-711165.html,Starry Property
11332,sell,10800000,0,2,675,580,High level,TAIKOO SHING,1/7/2019,22.28680818,114.2173326,"Estate,Apartment 2 bedroom",Taikoo Shing,  TaiKoo Shing,劉小姐 Grace Lau,https://i1.28hse.com/2019/01/768950_2019011087_tmb3.jpg,https://www.28hse.com/en/buy-property-748032.html,Easy Property
11347,sell,13500000,0,4,898,797,High level,必嘉街121號,1/7/2019,22.30367375,114.1905534,"Estate,Apartment 4 bedroom",Whampo,  a GardenSITE 12,汪小姐 Janet Wang,https://i1.28hse.com/2019/01/768910_2019010515_tmb3.jpg,https://www.28hse.com/en/buy-property-747990.html,Fortune Real Estate
11348,sell,6000000,0,2,580,424,Whole Building,NO.2 ON YUK ROAD,1/7/2019,22.375859,114.106109,A013896,Tsuen Wan,  Summit Terrace,冼先生 PATRICK SIN,https://i1.28hse.com/2019/01/768911_2019011936_tmb3.jpg,https://www.28hse.com/en/buy-property-747989.html,Wealth Property
11350,sell,8400000,0,2,597,505,Mid level,必嘉街121號,1/7/2019,22.30367375,114.1905534,"Estate,Apartment 2 bedroom",Whampo,  a GardenSITE 11,吳先生 Joe Ng,https://i1.28hse.com/2019/01/768902_2019011284_tmb3.jpg,https://www.28hse.com/en/buy-property-747980.html,Easywin Property
11351,sell,22000000,0,2,1250,990,Low level,NOS.4/8 NORTH STREET,1/7/2019,22.2838157,114.1286539,"PRICE ADJUSTED, MOTIVATED VENDOR! Own a Duplex with Huge Terrace1100'",Kennedy Town,  New Fortune House,小姐 Pascale Limaath,https://i1.28hse.com/2019/01/768899_2019012929_tmb3.jpg,https://www.28hse.com/en/buy-property-747977.html,Habitat Property
11353,sell,6800000,0,2,606,446,Whole Building,NO.2 ON YUK ROAD,1/7/2019,22.375859,114.106109,A013453,Tsuen Wan,  Summit Terrace,江小姐 JENNIFER KONG,https://i1.28hse.com/2019/01/768894_2019013208_tmb3.jpg,https://www.28hse.com/en/buy-property-747968.html,Wealth Property
11357,sell,12800000,0,3,675,580,High level,TAIKOO SHING,1/7/2019,22.28680818,114.2173326,Best Buy,Taikoo Shing,  TaiKoo Shing,金富地產代理 Gold Fu Property Agency Ltd,https://i1.28hse.com/2019/01/768885_2019010726_tmb3.jpg,https://www.28hse.com/en/buy-property-747957.html,Gold Fu Property
11358,sell,9600000,0,3,770,593,Mid level,NO.8 OI KING STREET,1/7/2019,22.3026748,114.1869438,"Estate,Apartment 3 bedroom",Hung Hom,  Harbour Place,吳先生 Joe Ng,https://i1.28hse.com/2019/01/768880_2019011636_tmb3.jpg,https://www.28hse.com/en/buy-property-747951.html,Easywin Property
11363,sell,8000000,0,2,661,537,Mid level,NO.8 NGA YING CHAU STREET TSING YI,1/7/2019,22.362227,114.105808,"Estate,Apartment 2 bedroom",Tsing Yi,  Villa Esplanada,李卓達先生 Maverick,https://i1.28hse.com/2019/01/768689_2019010141_tmb3.jpg,https://www.28hse.com/en/buy-property-747759.html,Midland Realty
11371,sell,5500000,0,2,677,589,Mid level,NO.2 WU CHUI ROAD,10/21/2018,22.37336,113.962041,"Estate,Home Ownership,Apartment 2 bedroom",Tuen Mun,  Melody Garden,余藝娟 Suki U,https://i1.28hse.com/2018/11/697850_2018113236_tmb3.jpg,https://www.28hse.com/en/buy-property-697850.html,Midland Realty
11374,sell,4100000,0,2,425,325,High level,37 Kam Lam Street,1/7/2019,22.3169411,114.167042,"Stand-alone Building,Apartment 2 bedroom",Mong Kok,  Kwong Yu Building,鄧生 Tony Tang,https://i1.28hse.com/2019/01/768844_2019011977_tmb3.jpg,https://www.28hse.com/en/buy-property-747917.html,Kwong Shun Property
11420,sell,5800000,0,2,520,341,High level,NO.39 MAN TAI STREET,1/2/2019,22.306579,114.187428,"Estate,Apartment 2 bedroom",Hung Hom,  Whampoa Estate,陳浩堯 PHILIP,https://i1.28hse.com/2019/01/744610_2019010607_tmb3.jpg,https://www.28hse.com/en/buy-property-744610.html,Sunrise Property
11426,sell,5900000,0,1,579,433,High level,15 TONG MING STREET,1/10/2019,22.309061,114.256665,Tong Ming Court,Tseung Kwan O,  Tong Ming Court,世紀21物業(將軍澳),https://i1.28hse.com/2019/01/749916_2019010438_tmb3.jpg,https://www.28hse.com/en/buy-property-749916.html,Century 21 (Tseung Kwan O)
11427,sell,6000000,0,2,579,433,Low level,15 TONG MING STREET,1/10/2019,22.309061,114.256665,Tong Ming Court,Tseung Kwan O,  Tong Ming Court,世紀21物業(將軍澳),https://i1.28hse.com/2019/01/749914_2019014448_tmb3.jpg,https://www.28hse.com/en/buy-property-749914.html,Century 21 (Tseung Kwan O)
11430,sell,12000000,0,2,595,511,Mid level,5 CHUN FAI ROAD,1/7/2019,22.274257,114.19381,"Estate,Apartment 2 bedroom",Jardine,  Tai Hang Terrace,黃生 Mr Wong,https://i1.28hse.com/2019/01/768760_2019014485_tmb3.jpg,https://www.28hse.com/en/buy-property-747830.html,WinLi Property
11433,sell,6000000,0,2,706,524,Mid level,NO.23 HANG FU STREET,11/26/2018,22.381761,113.971408,"Estate,Apartment 2 bedroom",Tuen Mun,  Nerine Cove,余藝娟 Suki U,https://i1.28hse.com/2018/11/723265_2018112875_tmb3.jpg,https://www.28hse.com/en/buy-property-723265.html,Midland Realty
11435,sell,8500000,0,3,900,672,Low level,NO. 1 LOHAS PARK ROAD,1/7/2019,22.2963019,114.2716941,"Estate,Apartment 3 bedroom",Tseung Kwan O,  Lohas ParkLE PRESTIG,李先生 Kelvin Li,https://i1.28hse.com/2019/01/768501_2019011617_tmb3.jpg,https://www.28hse.com/en/buy-property-747557.html,Hong Kong Property
11444,sell,900000,0,open style,140,90,High level,77/87 Wang Lung St. Tsuen Wan,1/7/2019,22.365962,114.118817,Office/industrial 7 bedroom,Tsuen Wan,  Richwealth Industrial Building,歐先生 IVAN,https://i1.28hse.com/2019/01/768688_2019012115_tmb3.jpg,https://www.28hse.com/en/buy-property-747758.html,Century 21 Wystan Property
11445,sell,6000000,0,2,628,521,High level,NOS. 168-236 WU CHUI ROAD,12/17/2018,22.372715,113.96611,"Estate,Apartment 2 bedroom",Tuen Mun,  Pierhead Garden,余藝娟 Suki U,https://i1.28hse.com/2018/12/736038_2018122449_tmb3.jpg,https://www.28hse.com/en/buy-property-736038.html,Midland Realty
11447,sell,5000000,0,2,573,443,Low level,NO.268 WU CHUI ROAD,12/17/2018,22.372258,113.968888,"Estate,Apartment 2 bedroom",Tuen Mun,  Miami Beach Towers,余藝娟 Suki U,https://i1.28hse.com/2018/12/736022_2018122481_tmb3.jpg,https://www.28hse.com/en/buy-property-736022.html,Midland Realty
11449,sell,8300000,0,3,949,861,Mid level,NO.2 WU CHUI ROAD,11/14/2018,22.37336,113.962041,"Estate,Home Ownership,Apartment 3 bedroom",Tuen Mun,  Melody Garden,余藝娟 Suki U,https://i1.28hse.com/2018/11/715765_2018111420_tmb3.jpg,https://www.28hse.com/en/buy-property-715765.html,Midland Realty
11454,sell,33000000,0,4,1891,1475,High level,No.388 Chatham Road North,12/28/2018,22.3112416,114.1860628,"Estate,Apartment 4 bedroom",Hung Hom,  Chatham Gate,姚先生 Mr. Yiu,https://i1.28hse.com/2018/09/684614_2018095485_tmb3.jpg,https://www.28hse.com/en/buy-property-660781.html,昇譽物業
11458,sell,16300000,0,4,1054,856,Mid level,NO.8 NGA YING CHAU STREET TSING YI,12/8/2018,22.362227,114.105808,"Estate,Apartment 4 bedroom",Tsing Yi,  Villa Esplanada,李莉小姐 Lily Lee,https://i1.28hse.com/2018/12/751470_2018122261_tmb3.jpg,https://www.28hse.com/en/buy-property-729915.html,Midland Realty
11459,sell,8600000,0,2,664,519,High level,NO.8 NGA YING CHAU STREET TSING YI,12/15/2018,22.362227,114.105808,"Estate,Apartment 2 bedroom",Tsing Yi,  Villa Esplanada,李莉小姐 Lily Lee,https://i1.28hse.com/2018/12/755766_2018121416_tmb3.jpg,https://www.28hse.com/en/buy-property-734395.html,Midland Realty
11464,sell,5500000,0,1,369,287,Mid level,NOS.22/36 PATERSON STREET,1/7/2019,22.280995,114.185845,"Estate,Apartment 1 bedroom",Causeway Bay,  Pearl City Mansion,郭生 Rocky kwok,https://i1.28hse.com/2019/01/768643_2019015485_tmb3.jpg,https://www.28hse.com/en/buy-property-747707.html,Wan Chai Property
11465,sell,6800000,0,1,508,390,Mid level,Nos.150/158 Lockhart Road,1/7/2019,22.278066,114.173459,"Stand-alone Building,Apartment 1 bedroom",Wan Chai,  Fortune Building,郭生 Rocky kwok,https://i1.28hse.com/2019/01/768635_2019015309_tmb3.jpg,https://www.28hse.com/en/buy-property-747697.html,Wan Chai Property
11469,sell,7900000,0,3,700,565,Mid level,NO.42 WOOD ROAD,1/7/2019,22.276254,114.176365,"Stand-alone Building,Apartment 3 bedroom",Wan Chai,  Wah To Building,郭生 Rocky kwok,https://i1.28hse.com/2018/10/722479_2018102313_tmb3.jpg,https://www.28hse.com/en/buy-property-699981.html,Wan Chai Property
11470,sell,4800000,0,1,420,310,Mid level,NO.5 HEARD STREET,1/7/2019,22.277509,114.177092,"Stand-alone Building,Apartment 1 bedroom",Wan Chai,  Chin Hung Building,郭生 Rocky kwok,https://i1.28hse.com/2018/10/716645_2018102400_tmb3.jpg,https://www.28hse.com/en/buy-property-693770.html,Wan Chai Property
11471,sell,27500000,0,3,1115,784,High level,NO. 22 JOHNSTON ROAD,1/7/2019,22.276901,114.170352,"Stand-alone Building,Apartment 3 bedroom",Wan Chai,  York Place,郭生 Rocky kwok,https://i1.28hse.com/2019/01/768627_2019010020_tmb3.jpg,https://www.28hse.com/en/buy-property-747687.html,Wan Chai Property
11473,sell,5700000,0,2,482,428,Mid level,NOS.20-30 TIN SAM STREET,11/17/2018,22.367761,114.17615,"Home Ownership,Apartment 2 bedroom",Tai Wai,  Carado Garden,劉先生 Hugo Lau,https://i1.28hse.com/2018/10/357607_2018104761_tmb3.jpg,https://www.28hse.com/en/buy-property-326712.html,Festival Home Property
11476,sell,5000000,0,3,728,636,Mid level,屏康里20號,1/7/2019,22.439422,114.011724,"Estate,Apartment 3 bedroom",Yuen Long,  CURIO COURT,馮根明 billy fung,https://i1.28hse.com/2019/01/747594_2019011834_tmb3.jpg,https://www.28hse.com/en/buy-property-747594.html,美聯物業
11478,sell,2900000,0,2,583,443,High level,上水天平路48號,1/7/2019,22.50161558,114.133923,"By Owner, Home Ownership,Apartment 2 bedroom",Sheung Shui,  Tin Ping Estate,MS LAW,https://i1.28hse.com/2019/01/747670_2019012626_tmb3.jpg,https://www.28hse.com/en/buy-property-747670.html,By Owner
11484,sell,5500000,0,2,520,341,Low level,NO.39 MAN TAI STREET,12/20/2018,22.306579,114.187428,"Estate,Apartment 2 bedroom",Hung Hom,  Whampoa Estate,楊小姐 Annie Yeung,https://i1.28hse.com/2018/12/758998_2018125194_tmb3.jpg,https://www.28hse.com/en/buy-property-737751.html,Tin Fu Property
11486,sell,5200000,0,2,520,380,High level,NO.39 MAN TAI STREET,1/7/2019,22.306579,114.187428,"Estate,Apartment 2 bedroom",Hung Hom,  Whampoa Estate,江先生 Terence Kong,https://i1.28hse.com/2019/01/747668_2019012027_tmb3.jpg,https://www.28hse.com/en/buy-property-747668.html,Fortune Real Estate
11487,sell,5500000,0,1,433,312,Mid level,NO.138 YEUNG UK ROAD,1/7/2019,22.366301,114.118179,"Estate,Apartment 1 bedroom",Tsuen Wan,  IndiHome,美聯-鄭先生 Oliver Chang,https://i1.28hse.com/2019/01/768522_2019015281_tmb3.jpg,https://www.28hse.com/en/buy-property-747577.html,Midland Realty
11488,sell,43800000,0,3,1445,1119,High level,NO.1 AUSTIN ROAD WEST,1/7/2019,22.3065833,114.1622778,"Estate,Apartment 3 bedroom",Kowloon Station,  Sorrento,余先生 KEN YU,https://i1.28hse.com/2018/01/537955_2018013774_tmb3.jpg,https://www.28hse.com/en/buy-property-509840.html,Leading Properties
11489,sell,6500000,0,2,612,450,High level,NO.100 YEUNG UK ROAD,1/7/2019,22.366887,114.1171145,"Estate,Stand-alone Building,Apartment 2 bedroom",Tsuen Wan,  Chelsea Court,美聯-鄭先生 Oliver Chang,https://i1.28hse.com/2019/01/768509_2019012118_tmb3.jpg,https://www.28hse.com/en/buy-property-747566.html,Midland Realty
11492,sell,11500000,0,3,1000,712,High level,NO.6 MAN WAN ROAD,1/7/2019,22.318644,114.177296,"Estate,Stand-alone Building,Apartment 3 bedroom",Ho Man Tin,  Crystal Court,陳小姐 Ms. Chan,https://i1.28hse.com/2019/01/747662_2019010297_tmb3.jpg,https://www.28hse.com/en/buy-property-747662.html,Posterity Ziyan Limited
11500,sell,17000000,0,3,1244,1060,High level,西貢,12/7/2018,22.3803174,114.2714596,"Estate,Apartment 3 bedroom",Sai Kung,  House,鍾先生 Wan Chung,https://i1.28hse.com/2018/09/691745_2018091463_tmb3.jpg,https://www.28hse.com/en/buy-property-667991.html,Ocean Realty Co. Limited
11512,sell,15000000,0,3,1958,1387,Whole Building,WO SHANG WAI,1/7/2019,22.484371,114.056779,"Best Buy,Best Buy in the market,Luxurious decorated,South",Yuen Long,  Royal Palms,楊潤軒 Mr. Yeung,https://i1.28hse.com/2019/01/768453_2019012673_tmb3.jpg,https://www.28hse.com/en/buy-property-747506.html,Midland Realty
11513,sell,6100000,0,2,657,505,Low level,No.88 Fung Cheung Road,1/7/2019,22.43898104,114.0342411,"Estate,Apartment 2 bedroom",Yuen Long,  Residence 88,李愛華,https://i1.28hse.com/2019/01/747508_2019011292_tmb3.jpg,https://www.28hse.com/en/buy-property-747508.html,Midland Realty
11515,sell,5900000,0,2,576,466,Low level,NO.8 LONG YAT ROAD,1/7/2019,22.445485,114.034391,"Estate,Apartment 2 bedroom",Yuen Long,  Sun  Centre,王小姐,https://i1.28hse.com/2019/01/747518_2019013719_tmb3.jpg,https://www.28hse.com/en/buy-property-747518.html,Midland Realty
11523,sell,4300000,0,1,420,320,Low level,NO.117 TAI KOK TSUI ROAD,1/7/2019,22.3216993,114.1619018,"Estate,Stand-alone Building,Apartment 1 bedroom",Tai Kok Tsui,  Cosmopolitan Estate,鄧生 Tony Tang,https://i1.28hse.com/2019/01/768537_2019012473_tmb3.jpg,https://www.28hse.com/en/buy-property-747593.html,Kwong Shun Property
11538,sell,99000000,0,4,3061,2491,High level,NO.61 SOUTH BAY ROAD,1/7/2019,22.227622,114.20108,"Fabulous Views, Stunning Interior",Repulse Bay,  Grand Garden,小姐 Victoria Allan,https://i1.28hse.com/2018/11/746298_2018112839_tmb3.jpg,https://www.28hse.com/en/buy-property-724474.html,Habitat Property
11556,sell,3800000,0,1,356,240,High level,887-889 Canton Road,10/13/2018,22.314829,114.167893,"Stand-alone Building,Apartment 1 bedroom",Yau Ma Tei,  Seawide Mansion,陳先生 Man Chan,https://i1.28hse.com/2018/10/715444_2018103041_tmb3.jpg,https://www.28hse.com/en/buy-property-692458.html,FU WING PROPERTY AGENCY
11559,sell,9000000,0,3,1400,1400,High level,金豪花園,11/25/2018,22.357992,114.237318,"Village House,Apartment 3 bedroom",Sai Kung,  Villa Gold Finch,曾文禧 Peggy Tsang,https://i1.28hse.com/2018/11/744592_2018114894_tmb3.jpg,https://www.28hse.com/en/buy-property-722629.html,Century 21 Goodwin Property
11560,sell,5600000,0,2,574,427,High level,1 CHUI TONG ROAD,11/15/2018,22.379367,114.269493,"Estate,Apartment 2 bedroom",Sai Kung,  Lakeside Garden,曾文禧 Peggy Tsang,https://i1.28hse.com/2018/11/738458_2018110688_tmb3.jpg,https://www.28hse.com/en/buy-property-716173.html,Century 21 Goodwin Property
11565,sell,15000000,0,3,974,826,Low level,NO.100 SHING TAI ROAD,1/11/2019,22.276965,114.239007,"Estate,Apartment 3 bedroom",Heng Fa Chuen,  ,王少容 Crystal Wong,https://i1.28hse.com/2019/01/750256_2019011652_tmb3.jpg,https://www.28hse.com/en/buy-property-750256.html,Qfang.com
11566,sell,18500000,0,3,996,889,Mid level,NOS.231-233 ELECTRIC ROAD,1/11/2019,22.29039688,114.1932839,"Estate,Apartment 3 bedroom",North Point,  City Garden,黎妙茶 Jessica Lai,https://i1.28hse.com/2019/01/750255_2019010005_tmb3.jpg,https://www.28hse.com/en/buy-property-750255.html,Qfang.com
11567,sell,3300000,0,2,531,381,Mid level,鴨脷洲利東邨道,1/11/2019,22.241656,114.155713,"Estate,Apartment 2 bedroom",Ap Lei Chau,  Lei Tung Estate,徐國輝 Otto Tsui,https://i1.28hse.com/2019/01/750254_2019013790_tmb3.jpg,https://www.28hse.com/en/buy-property-750254.html,Qfang.com
11569,sell,10500000,0,1,682,513,High level,NO.8 NAM LONG SHAN ROAD,1/11/2019,22.245143,114.166946,"Estate,Apartment 1 bedroom",Wong Chuk Hang,  GrandView Garden,賴淑蓉 Ina Lai,https://i1.28hse.com/2019/01/750252_2019011845_tmb3.jpg,https://www.28hse.com/en/buy-property-750252.html,Qfang.com
11570,sell,9100000,0,3,921,699,Mid level,NO. 1 LOHAS PARK ROAD,1/11/2019,22.2963019,114.2716941,"Estate,Apartment 3 bedroom",Tseung Kwan O,  Lohas Park,韋麗東 Kina Wai,https://i1.28hse.com/2019/01/750251_2019013239_tmb3.jpg,https://www.28hse.com/en/buy-property-750251.html,Qfang.com
11572,sell,47800000,0,5 +,2500,2145,Mid level,NO. 92 POK FU LAM ROAD,1/8/2019,22.297882,114.172822,"Estate,Apartment 5 bedroom",Pok Fu Lam,  La Clare Mansion,余偉狄 Dik Yu,https://i1.28hse.com/2019/01/748135_2019013503_tmb3.jpg,https://www.28hse.com/en/buy-property-748135.html,Qfang.com
11580,sell,11000000,0,4,983,713,High level,NO.98 ROUTE TWISK TSUEN WAN,10/11/2018,22.384065,114.109258,"Estate,Apartment 4 bedroom",Tsuen Wan,  The Cliveden,黃嘉豪 Mr. Wong,https://i1.28hse.com/2019/01/713822_2019010795_tmb3.jpg,https://www.28hse.com/en/buy-property-690753.html,Midland Realty
11587,sell,7900000,0,1,655,482,Mid level,新海旁街27號,1/7/2019,22.283732,114.127459,"1 bedroom, nice decoration",Kennedy Town,  Ka On Building,劉先生 Joseph Lau,https://i1.28hse.com/2018/11/513592_2018112908_tmb3.jpg,https://www.28hse.com/en/buy-property-485336.html,萬基地產
11592,sell,4700000,0,2,573,443,Low level,NO.268 WU CHUI ROAD,11/3/2018,22.372258,113.968888,"Home ownership scheme for lease,Best price for lea",Tuen Mun,  Miami Beach Towers,楊子樂 Lok Yeung,https://i1.28hse.com/2018/12/707359_2018124619_tmb3.jpg,https://www.28hse.com/en/buy-property-707359.html,Midland Realty
11595,sell,5800000,0,2,495,354,Mid level,342 CASTLE PEAK ROAD TSUEN WAN,1/6/2019,22.374196,114.115201,"Estate,Apartment 2 bedroom",Tsuen Wan,  Tsuen Kam Centre,何裕棠 Joe Ho,https://i1.28hse.com/2019/01/747198_2019012263_tmb3.jpg,https://www.28hse.com/en/buy-property-747198.html,Midland Realty
11597,sell,6400000,0,2,518,451,High level,22-66 WAI TSUEN ROAD TSUEN WAN,10/22/2018,22.373105,114.119794,"Estate,Apartment 2 bedroom",Tsuen Wan,  Luk Yeung Sun Chuen,何裕棠 Joe Ho,https://i1.28hse.com/2018/10/720851_2018102326_tmb3.jpg,https://www.28hse.com/en/buy-property-698283.html,Midland Realty
11598,sell,6200000,0,2,511,445,High level,22-66 WAI TSUEN ROAD TSUEN WAN,11/4/2018,22.373105,114.119794,"Estate,Apartment 2 bedroom",Tsuen Wan,  Luk Yeung Sun Chuen,何裕棠 Joe Ho,https://i1.28hse.com/2018/12/730138_2018125186_tmb3.jpg,https://www.28hse.com/en/buy-property-707871.html,Midland Realty
11606,sell,10500000,0,3,1410,968,Whole Building,Palm Springs Boulevard,11/11/2018,22.486816,114.053725,"Apartment,House 3 bedroom",Yuen Long,  Palm Springs,楊潤軒 Mr. Yeung,https://i1.28hse.com/2018/10/680756_2018105863_tmb3.jpg,https://www.28hse.com/en/buy-property-656727.html,Midland Realty
11607,sell,11500000,0,3,1300,915,Whole Building,錦繡花園河北第十街,11/11/2018,22.48113,114.04687,"Apartment,House 3 bedroom",Yuen Long,  Fairview Park,楊潤軒 Mr. Yeung,https://i1.28hse.com/2018/11/680751_2018113960_tmb3.jpg,https://www.28hse.com/en/buy-property-656718.html,Midland Realty
11609,sell,10600000,0,3,850,848,Whole Building,錦繡花園河北第十街,11/11/2018,22.48113,114.04687,"Apartment,House 3 bedroom",Yuen Long,  Fairview Park,楊潤軒 Mr. Yeung,https://i1.28hse.com/2018/12/680739_2018125345_tmb3.jpg,https://www.28hse.com/en/buy-property-656705.html,Midland Realty
11610,sell,12000000,0,2,1769,1201,Whole Building,Palm Springs Boulevard,11/11/2018,22.486816,114.053725,"Apartment,House 2 bedroom",Yuen Long,  Palm Springs,楊潤軒 Mr. Yeung,https://i1.28hse.com/2018/08/679302_2018082842_tmb3.jpg,https://www.28hse.com/en/buy-property-655173.html,Midland Realty
11612,sell,7500000,0,2,666,524,Mid level,8 CHUNG WA ROAD,12/12/2018,22.31666153,114.2657518,"Estate,Apartment 2 bedroom",Tseung Kwan O,  East Point,黃富國 Jason Wong,https://i1.28hse.com/2018/12/754424_2018120055_tmb3.jpg,https://www.28hse.com/en/buy-property-732990.html,Midland Realty
11616,sell,3800000,0,2,377,280,Mid level,NO.51G YAU SAN STREET,1/6/2019,22.442909,114.031256,"Estate,Apartment 2 bedroom",Yuen Long,  Full Yau Court,鄧小姐,https://i1.28hse.com/2019/01/746989_2019014666_tmb3.jpg,https://www.28hse.com/en/buy-property-746989.html,Midland Realty
11617,sell,7500000,0,2,695,516,Mid level,88 O KING ROAD,1/6/2019,22.30075543,114.2546529,"Estate,Apartment 2 bedroom",Tseung Kwan O,  Ocean Shores,鄧浩源 Mike Tang,https://i1.28hse.com/2019/01/767923_2019013777_tmb3.jpg,https://www.28hse.com/en/buy-property-746978.html,Midland Property
11620,sell,14800000,0,3,1050,1035,Whole Building,錦繡花園河北第十街,11/11/2018,22.48113,114.04687,"Apartment,House 3 bedroom",Yuen Long,  Fairview Park,徐華 Ms. Chui,https://i1.28hse.com/2018/08/680026_2018085633_tmb3.jpg,https://www.28hse.com/en/buy-property-655932.html,Midland Realty
11625,sell,6400000,0,2,546,406,Low level,9 TONG TAK STREET,1/7/2019,22.30724,114.257113,Park central with garden view,Tseung Kwan O,  Park Central,阮小姐 Miss yuen,https://i1.28hse.com/2018/08/646959_2018081475_tmb3.jpg,https://www.28hse.com/en/buy-property-646959.html,By Owner
11626,sell,5900000,0,3,611,487,Low level,NO.2 TUEN HOP STREET,1/6/2019,22.278301,114.182009,"Home ownership scheme for lease,Best price for lea",Tuen Mun,  Trend Plaza,朱麒銘 EDDIE CHU,https://i1.28hse.com/2019/01/746924_2019015335_tmb3.jpg,https://www.28hse.com/en/buy-property-746924.html,Midland Realty
11633,sell,5300000,0,3,655,511,Low level,NOS. 4-8 KING FUNG PATH,10/7/2018,22.404468,113.98163,"Estate,Apartment 3 bedroom",Tuen Mun,  Elegance Gardens,劉先生 Tony Lau,https://i1.28hse.com/2018/12/710873_2018123700_tmb3.jpg,https://www.28hse.com/en/buy-property-687545.html,西 鐵 兆 康 美聯
11656,sell,4400000,0,2,492,349,High level,NO.1 TUEN SHUN STREET,12/6/2018,22.392641,113.976655,"Home ownership scheme for lease,Best price for lea",Tuen Mun,   Town Plaza,朱麒銘 EDDIE CHU,https://i1.28hse.com/2019/01/729126_2019014408_tmb3.jpg,https://www.28hse.com/en/buy-property-729126.html,Midland Realty
11658,sell,7400000,0,2,500,413,High level,NO.108 BAKER STREET HUNGHOM,1/7/2019,22.305468,114.185487,"Estate,Apartment 2 bedroom",Hung Hom,  Hunghom Bay Centre,姚小姐 ANGEL,https://i1.28hse.com/2019/01/747425_2019014116_tmb3.jpg,https://www.28hse.com/en/buy-property-747425.html,Sunrise Property
11661,sell,9000000,0,3,819,660,High level,NO. 2 HANG MING STREET,1/5/2019,22.41923585,114.2247409,"Estate,Apartment 3 bedroom",Ma On Shan,  Vista Paradiso,麥錦昌 K.C MAK,https://i1.28hse.com/2019/01/767339_2019014249_tmb3.jpg,https://www.28hse.com/en/buy-property-746368.html,Midland Property
11668,sell,4200000,0,2,508,367,High level,NO.9 LEUNG TAK STREET,10/17/2018,22.409164,113.967648,"Estate,Apartment 2 bedroom",Tuen Mun,  GoodRich Garden,林琛馥 SAMF LAM,https://i1.28hse.com/2018/12/718161_2018123568_tmb3.jpg,https://www.28hse.com/en/buy-property-695357.html,Midland Realty
11669,sell,4400000,0,2,638,485,Low level,NO.2 TIN KING ROAD,10/17/2018,22.405162,113.966527,"Estate,Home Ownership,Apartment 2 bedroom",Tuen Mun,  Siu Kwai Court,林琛馥 SAMF LAM,https://i1.28hse.com/2018/12/718149_2018120993_tmb3.jpg,https://www.28hse.com/en/buy-property-695343.html,Midland Realty
11672,sell,5100000,0,2,710,554,High level,NO.15 ON PO ROAD TAI PO,11/20/2018,22.45500026,114.1738501,"By Owner, Estate,Home Ownership,Apartment 2 bedroom",Tai Po,  Yee Nga Court,吳先生,https://i1.28hse.com/2018/08/719557_2018080416_tmb3.jpg,https://www.28hse.com/en/buy-property-719557.html,By Owner
11674,sell,10900000,0,2,668,509,High level,NO.8 CHE KUNG MIU ROAD,1/7/2019,22.37476,114.185953,"Estate,Apartment 2 bedroom",Tai Wai,  The Riverpark,梁先生 Kaco Leung,https://i1.28hse.com/2019/01/768358_2019013756_tmb3.jpg,https://www.28hse.com/en/buy-property-747405.html,Festival Home Property
11690,sell,4700000,0,2,540,447,Low level,NO. 12 CHUI TIN STREET,1/5/2019,22.367147,114.17947,"Estate,Apartment 2 bedroom",Tai Wai,  King Tin Court,麥錦昌 K.C MAK,https://i1.28hse.com/2019/01/767444_2019013829_tmb3.jpg,https://www.28hse.com/en/buy-property-746482.html,Midland Property
11694,sell,21000000,0,3,1078,822,Low level,NO.10 ROBINSON ROAD,1/7/2019,22.279792,114.152562,"Block 1, The Grand Panorama",Western mid-levels,  The Grand Panorama,"區卓麟先生 Gordon, Au Cheuk Lun",https://i1.28hse.com/2019/01/747379_2019014554_tmb3.jpg,https://www.28hse.com/en/buy-property-747379.html,Hong Kong Property
11701,sell,10200000,0,4,690,611,High level,必嘉街121號,11/12/2018,22.30367375,114.1905534,"By Owner, Estate,Apartment 4 bedroom",Whampo,  a Garden,Chan Ms Chan,https://i1.28hse.com/2017/11/554155_2017110256_tmb3.jpg,https://www.28hse.com/en/buy-property-554155.html,By Owner
11708,sell,6500000,0,2,703,524,Mid level,33 CASTLE PEAK ROAD SHAM TSENG,11/11/2018,22.36658,114.061396,"By Owner, Estate,Apartment 2 bedroom",Tsuen Wan Sham Tseng,  Bellagio,吳生 Mr Wu,https://i1.28hse.com/2018/11/713454_2018110277_tmb3.jpg,https://www.28hse.com/en/buy-property-713454.html,By Owner
11721,sell,5200000,0,3,692,592,Low level,1 TONG MING STREET,1/6/2019,22.311154,114.261597,"Home Ownership,Apartment 3 bedroom",Tseung Kwan O,  Beverly Garden,畢先生 KEVIN BUTT,https://i1.28hse.com/2019/01/768234_2019014545_tmb3.jpg,https://www.28hse.com/en/buy-property-747301.html,Wings Property
11734,sell,7700000,0,2,680,537,Mid level,NO.8 SCENEWAY ROAD,1/6/2019,22.307762,114.233596,"Estate,Apartment 2 bedroom",Lam Tin,  Sceneway Garden,畢先生 KEVIN BUTT,https://i1.28hse.com/2019/01/768214_2019012105_tmb3.jpg,https://www.28hse.com/en/buy-property-747279.html,Wings Property
11735,sell,6700000,0,2,584,420,High level,WAN HANG ROAD,1/6/2019,22.32246767,114.256804,"No tenant now,All sea view",Tseung Kwan O,  Metro City,黃小姐 Tammy Wong,https://i1.28hse.com/2019/01/747278_2019010055_tmb3.jpg,https://www.28hse.com/en/buy-property-747278.html,En Tie Property
11738,sell,6400000,0,2,840,650,Low level,NO.11 LEI YUE MUN ROAD,1/6/2019,22.308434,114.232614,"Estate,Home Ownership,Apartment 2 bedroom",Lam Tin,  Lei On Court,陳先生 ERIC CHAN,https://i1.28hse.com/2019/01/768209_2019015007_tmb3.jpg,https://www.28hse.com/en/buy-property-747273.html,Honor Property
11739,sell,6900000,0,3,828,650,High level,33 NING TAI ROAD,1/6/2019,22.407751,114.221543,"Home Ownership,Apartment 3 bedroom",Ma On Shan,  KAM TAI COURT,伍筱逑 Winny Ng,https://i1.28hse.com/2019/01/747271_2019015086_tmb3.jpg,https://www.28hse.com/en/buy-property-747271.html,Century 21 Goodwin Property
11740,sell,30800000,0,4,1306,985,High level,NO. 180 JAVA ROAD,1/6/2019,22.29235747,114.2017168,"Estate,Apartment 4 bedroom",North Point,  Island Lodge,王先生 Jackson Wong,https://i1.28hse.com/2019/01/768204_2019015472_tmb3.jpg,https://www.28hse.com/en/buy-property-747267.html,Orchard Property Agency
11741,sell,7100000,0,3,553,485,High level,NOS.278-288 KINGS ROAD,1/6/2019,22.289537,114.195161,"Estate,Apartment 3 bedroom",North Point,   Centre,李小姐,https://i1.28hse.com/2019/01/747266_2019011402_tmb3.jpg,https://www.28hse.com/en/buy-property-747266.html,Well Profit Properties
11743,sell,4700000,0,2,499,306,High level,NOS.5-7 CHUI TIN ST.,12/21/2018,22.369504,114.184082,"Estate,Apartment 2 bedroom",Tai Wai,  Golden Lion Garden,楊先生 Ka Ming,https://i1.28hse.com/2018/12/759575_2018121558_tmb3.jpg,https://www.28hse.com/en/buy-property-738330.html,Festival Home Property
11746,sell,7400000,0,3,717,592,High level,英皇道 1110-1128,12/10/2018,22.2854548,114.2156911,"Estate,Apartment 3 bedroom",Quarry Bay,  ROAD KORNHILL,曾小姐 Amy Tsang,https://i1.28hse.com/2018/11/727703_2018115688_tmb3.jpg,https://www.28hse.com/en/buy-property-705366.html,Dynamic Property
11747,sell,5600000,0,2,496,374,High level,NO.18 ON SHING STREET,1/6/2019,22.424581,114.232456,"Estate,Apartment 2 bedroom",Ma On Shan,  Sunshine City,伍筱逑 Winny Ng,https://i1.28hse.com/2019/01/747259_2019010553_tmb3.jpg,https://www.28hse.com/en/buy-property-747259.html,Century 21 Goodwin Property
11749,sell,5100000,0,2,398,318,High level,崇安街17號,1/6/2019,22.312069,114.189049,"Estate,Stand-alone Building,Apartment 2 bedroom",To Kwa Wan,  Sunshine Plaza,蘇小姐 Ms. So,https://i1.28hse.com/2019/01/747257_2019015888_tmb3.jpg,https://www.28hse.com/en/buy-property-747257.html,Leo Power Realty
11756,sell,8000000,0,3,654,544,Mid level,NOS.1-3 ON KING STREET,1/6/2019,22.391654,114.205573,"Estate,Apartment 3 bedroom",ShaTin,  Ravana Garden,歐生 JOHN AU,https://i1.28hse.com/2019/01/768184_2019015108_tmb3.jpg,https://www.28hse.com/en/buy-property-747246.html,Century 21 Goodwin Property
11758,sell,7300000,0,2,635,515,Mid level,NOS.901-907 KINGS ROAD,1/6/2019,22.289372,114.210309,"Estate,Apartment 2 bedroom",Quarry Bay,  King's View Court,韓小姐 Josephine Hon,https://i1.28hse.com/2019/01/768182_2019013662_tmb3.jpg,https://www.28hse.com/en/buy-property-747244.html,Chung Wah Property
11760,sell,6000000,0,3,711,554,Mid level,NO.78 SIU LEK YUEN ROAD,12/30/2018,22.38065471,114.2167586,"Estate,Home Ownership,Apartment 3 bedroom",ShaTin,  Hong Lam Court,葉先生 Kenji Yip,https://i1.28hse.com/2018/12/764207_2018120732_tmb3.jpg,https://www.28hse.com/en/buy-property-743121.html,Mang Fong
11763,sell,22800000,0,5 +,2100,2062,Whole Building,Yuen Long,11/26/2018,22.4282218,114.0834152,"Village House,Apartment 5 bedroom",Yuen Long,  Village,趙先生 Daniel,https://i1.28hse.com/2018/08/670583_2018085391_tmb3.jpg,https://www.28hse.com/en/buy-property-646166.html,Grand View Property
11770,sell,6300000,0,3,750,565,High level,NOS.1-23 MAN YUEN STREET NOS.2-24 MAN YING STREET,11/23/2018,22.30729179,114.1666979,"Stand-alone Building,Apartment 3 bedroom",Jordan,  Man Ying Building,戴生 Jay Tai,https://i1.28hse.com/2018/11/743593_2018110380_tmb3.jpg,https://www.28hse.com/en/buy-property-721575.html,Kwong Shun Property
11773,sell,3900000,0,1,380,290,High level,NOS.4/12 LIN SHING ROAD,1/6/2019,22.261632,114.235906,"Stand-alone Building,Apartment 1 bedroom",Chai Wan,  Yen Lok Building,何先生 KIT HO,https://i1.28hse.com/2019/01/747221_2019015257_tmb3.jpg,https://www.28hse.com/en/buy-property-747221.html,SING IP PROPERTY
11774,sell,4300000,0,2,385,269,Mid level,NOS.20-30 TAI CHUNG KIU ROAD,11/25/2018,22.381189,114.195249,"Estate,Apartment 2 bedroom",ShaTin,  Garden Rivera,郭小姐 Ar Man,https://i1.28hse.com/2019/01/722388_2019012388_tmb3.jpg,https://www.28hse.com/en/buy-property-722388.html,Goodwin Property
11800,sell,5200000,0,3,813,594,Mid level,NO.23 KO CHIU ROAD,12/10/2018,22.299062,114.242142,"Estate,Home Ownership,Apartment 3 bedroom",Yau Tong,  Ko Chun Court,葉小姐 MS YIP,https://www.28hse.com/en/utf8/dreamimages/nophoto150.jpg,https://www.28hse.com/en/buy-property-731371.html,Grand Home Property
11801,sell,4900000,0,2,504,431,Mid level,11 TONG CHUN STREET,11/23/2018,22.306734,114.262383,"Estate,Home Ownership,Apartment 2 bedroom",Tseung Kwan O,  Bauhinia Garden,葉小姐 MS YIP,https://www.28hse.com/en/utf8/dreamimages/nophoto150.jpg,https://www.28hse.com/en/buy-property-720951.html,Grand Home Property
11808,sell,8300000,0,3,1090,875,Mid level,CASTLE PEAK ROAD CASTLE PEAK BAY SIU LAM,1/6/2019,22.3669269,114.0132595,"Estate,Apartment 3 bedroom",Tuen Mun Sham Tseng,   Palatial Coast,黃子康 先生 Michael Wong,https://i1.28hse.com/2019/01/768106_2019015282_tmb3.jpg,https://www.28hse.com/en/buy-property-747167.html,Century21 Sky On
11814,sell,12800000,0,4,935,833,Low level,必嘉街121號,1/6/2019,22.30367375,114.1905534,"Estate,Apartment 4 bedroom",Whampo,  a GardenSITE 10,莫先生 Gary,https://i1.28hse.com/2018/10/537055_2018101068_tmb3.jpg,https://www.28hse.com/en/buy-property-508887.html,Hong Kong United Group
